ID_Musee,Nom,Telephone,Adresse,Latitude,Longitude,RefType,RefInstitution,RefVille,RefFinances,RefLocale
8400200098,ALASKA AVIATION HERITAGE MUSEUM,9072485325,4721 AIRCRAFT DR,61.17925,-149.97254,1,NULL,99502,920071852,1
8400200117,ALASKA BOTANICAL GARDEN,9077703692,4601 CAMPBELL AIRSTRIP RD,61.1689,-149.76708,2,NULL,99502,920115504,4
8400200153,ALASKA CHALLENGER CENTER FOR SPACE SCIENCE TECHNOLOGY,9072832000,9711 KENAI SPUR HWY,60.56149,-151.21598,3,NULL,99611,921761906,3
8400200143,ALASKA EDUCATORS HISTORICAL SOCIETY,2142472478,214 BIRCH STREET,60.5628,-151.26597,4,NULL,99611,920165178,3
8400200027,ALASKA HERITAGE MUSEUM,9072652834,301 W NORTHERN LIGHTS BLVD,61.17925,-149.97254,1,NULL,99502,920071852,1
8400200096,ALASKA HISTORICAL MUSEUM,NULL,1675 E 5TH AVE,61.21785,-149.85049,4,NULL,99502,920062352,1
8400200078,ALASKA JEWISH MUSEUM,9077707021,1117 E 35TH AVE,61.18946,-149.86071,5,NULL,99502,711010049,1
8400200084,ALASKA LIGHTHOUSE ASSOCIATION,NULL,2116 B 2ND ST,58.28299,-134.40583,4,NULL,99824,911833974,3
8400200107,ALASKA MASONIC LIBRARY AND MUSEUM FOUNDATION,9072762665,PO BOX 190668,61.21833,-149.89456,5,NULL,99502,920095561,1
8400200073,ALASKA MINING HALL OF FAME FOUNDATION,NULL,PO BOX 81906,64.85079,-147.82945,1,NULL,99708,550819611,2
8400200131,ALASKA NATIONAL GUARD HISTORICAL HOLDING-MUSEUM,NULL,PO BPX 5800,61.25315,-149.68711,4,NULL,99505,920141774,1
8400200123,ALASKA NATIVE HERITAGE CENTER,9073308000,8800 HERITAGE CENTER DRIVE,61.23361,-149.71566,5,NULL,99502,920127531,1
8400200082,ALASKA SPORTS HALL OF FAME,NULL,6740 SAMUEL CT,61.08741,-149.6926,5,NULL,99502,810649085,4
8400200044,ALASKA STATE MUSEUM,9074652901,395 WHITTIER ST,58.30048,-134.4148,5,NULL,99801,237067119,3
8400200133,ALASKA TERRITORIAL CAVALRY MOTORIZED,9075625359,5910 DEBARR ROAD,61.19007,-149.91195,5,NULL,99502,920145434,1
8400200026,ALASKA TROOPER MUSEUM,9072795050,245 W 5TH AVE,61.21765,-149.88622,5,NULL,99502,920091086,1
8400200031,ALASKA VETERANS MUSEUM,9076778802,334 W 4TH AVENUE 227,61.21406,-149.87855,1,NULL,99502,30382080,1
8400200170,ALASKA WILDLIFE CONSERVATION CENTER,9072275764,PO BOX 848,60.96435,-149.13368,2,NULL,99587,920170600,4
8400200087,ALASKA ZOO,9073462133,4731 OMALLEY RD,61.12476,-149.79254,6,NULL,99502,920039344,1
8400200109,ALPINE HISTORICAL SOCIETY,9077457000,PO BOX 266,61.76392,-148.38192,4,NULL,99674,920101994,4
8400200152,ALUTIIQ HERITAGE ENDOWMENT,9075612668,4300 B ST STE 407,61.18152,-149.88518,4,NULL,99502,920177435,1
8400200135,ALUTIIQ HERITAGE FOUNDATION,9074867004,215 MISSION RD STE 101,57.78869,-152.4025,5,NULL,99615,920150422,3
8400200137,ANCHORAGE CLAY ARTS GUILD,NULL,PO BOX 241151,61.18495,-149.89178,7,NULL,99502,920156423,1
8400200132,ANCHORAGE GENEALOGICAL SOCIETY,NULL,PO BOX 242294,61.18495,-149.89178,4,NULL,99502,920143639,1
8400200121,ANCHORAGE HISTORIC PROPERTIES,9072743600,645 WEST 3RD AVENUE,61.21978,-149.89524,4,NULL,99502,920119470,1
8400200125,ANCHORAGE MUSEUM,9079299200,121 WEST SEVENTH AVENUE,61.21608,-149.8853,5,NULL,99502,920129376,1
8409502704,ARC GALLERY,9077861766,3211 PROVIDENCE DRIVE,64.81712,-147.87837,7,1,99502,926000147,2
8400200028,BARANOV MUSEUM,9074865920,101 MARINE WAY,57.7885,-152.39915,4,NULL,99615,926002560,3
8400200069,BRISTOL BAY HISTORICAL SOCIETY,NULL,PO BOX 276,58.85984,-156.71037,4,NULL,99633,510174974,4
8400200168,BUNNELL STREET GALLERY,9072352662,106 W BUNNELL AVE,59.64002,-151.54459,7,NULL,99603,943220880,4
8400200060,CAPE DECISION LIGHTHOUSE SOCIETY,NULL,224 KATLIAN ST,57.05246,-135.3427,4,NULL,99835,311591643,3
8400200145,CAPE ST ELIAS LIGHTKEEPERS ASSOCIATION,9074245182,PO BOX 1023,60.07439,-147.99241,4,NULL,99574,920165946,4
8409502921,CARR-GOTTSTEIN GALLERY,8002527528,4101 UNIVERSITY DRIVE,61.18889,-149.80347,7,2,99502,920023588,1
8400200171,CENTER FOR ALASKAN COASTAL STUDIES,9072356756,708 SMOKEY BAY WAY,59.64585,-151.52423,2,NULL,99603,920086250,4
8400200051,CHILDREN'S MUSEUM OF ALASKA,NULL,PO BOX 112772,61.11024,-149.86107,8,NULL,99502,261910346,1
8400200136,CHILKAT INDIAN VILLAGE,9077675505,PO BOX 1004,59.24675,-135.47365,4,NULL,99827,920155562,4
8400200070,CHILKAT VALLEY HISTORICAL SOCIETY,9077662366,BOX 623,59.24675,-135.47365,4,NULL,99827,510180584,4
8400200134,CHUGIAK-EAGLE RIVER HISTORICAL SOCIETY,9076884706,PO BOX 670573,61.38967,-149.47465,4,NULL,99567,920147295,4
8400200099,CIRCLE DISTRICT HISTORICAL SOCIETY,9075201893,PO BOX 30189,65.34556,-145.14026,4,NULL,99730,920074363,4
8400200067,CLAUDIA KELSEY DOLL MUSEUM,9075864969,114 S FRANKLIN ST STE 103,58.3005,-134.40561,5,NULL,99801,456688579,3
8400200105,CLAUSEN MEMORIAL MUSEUM,9077723598,PO BOX 708,56.80634,-132.96963,1,NULL,99833,920089647,4
8400200097,COPPER VALLEY HISTORICAL SOCIETY,9078225285,PO BOX 84,61.92025,-145.38294,4,NULL,99573,920067823,4
8400200163,CORDOVA HISTORICAL SOCIETY,9074246665,PO BOX 391,60.07439,-147.99241,4,NULL,99574,926010338,4
8400200177,DENALI NATIONAL PARK AND PRESERVE,9076839536,PO BOX 9,63.62586,-150.90305,4,NULL,99755,920131177,4
8400200127,DOG MUSHING MUSEUM,9074573669,PO BOX 80136,64.84166,-147.72054,5,NULL,99708,920133850,1
8400200022,EAGLE HISTORICAL SOCIETY,9075472325,PO BOX 670573,64.78917,-141.20294,4,NULL,99738,920093792,4
8400200106,EAGLE HISTORICAL SOCIETY OF ALASKA,9075472325,PO BOX 23,64.78917,-141.20294,4,NULL,99738,920093792,4
8400200172,EAGLE RIVER NATURE CENTER,9076942108,32750 EAGLE RIVER ROAD,61.23644,-149.27332,2,NULL,99508,920156981,4
8400200055,FAIRBANKS CHILDREN'S MUSEUM,NULL,PO BOX 72477,64.84217,-147.72078,8,NULL,99708,264095584,1
8400200130,FAIRBANKS COMMUNITY MUSEUM,9074573669,410 CUSHMAN STREET,64.84231,-147.72457,1,NULL,99708,920139287,1
8400200034,FAIRBANKS HOCKEY HALL OF FAME,NULL,219 SLATER DR,64.83881,-147.70136,5,NULL,99708,201276510,1
8409503302,GARY L. FREEBURG ART GALLERY,NULL,3211 PROVIDENCE DRIVE,64.81712,-147.87837,7,3,99502,926000147,2
8400200114,GASTINEAU CHANNEL HISTORICAL SOCIETY,9075865338,PO BOX 21264,58.30836,-134.39819,4,NULL,99801,920111895,4
8409502161,GEORGESON BOTANICAL GARDEN,9074747222,117 WEST TANANA DRIVE,64.81712,-147.87837,2,4,99708,926000147,2
8400200075,GLENN HIGHWAY SCENIC BYWAY ASSOCIATION,NULL,PO BOX 773423,61.31504,-149.52682,4,NULL,99508,680561000,3
8400200081,GOLDBELT HERITAGE FOUNDATION,9077901424,3075 VINTAGE BLVD SUITE 200,58.33036,-134.47205,4,NULL,99801,810645819,3
8400200039,GUSTAVUS HISTORICAL ARCHIVES AND ANTIQUITIES,9076973042,PO BOX 14,58.82437,-136.97103,4,NULL,99826,205090234,4
8400200056,HAL HOPKINS WW II MEMORIAL,NULL,5929 CAMDEN CIR,61.19491,-149.76884,4,NULL,99502,270251570,1
8400200074,HAMMER MUSEUM,9077662374,PO BOX 702,59.24675,-135.47365,1,NULL,99827,571199151,4
8400200063,HISTORIC HALL,NULL,PO BOX 80589,64.85079,-147.82945,4,NULL,99708,383749864,2
8400200158,HOMER SOCIETY OF NATURAL HISTORY,NULL,3779 BARTLETT ST,59.6447,-151.5504,9,NULL,99603,926002856,4
8400200046,HOPE AND SUNRISE HISTORICAL SOCIETY,9077823740,PO BOX 88,60.88669,-149.54407,4,NULL,99605,237213390,4
8400200064,HUBBELL FAMILY HISTORICAL SOCIETY,NULL,PO BOX 1390,60.58442,-151.23509,4,NULL,99611,431262322,4
8400200146,IDITAROD NATIONAL HISTORIC TRAIL,9072747165,PO BOX 2323,61.19811,-149.92363,4,NULL,99664,920165948,1
8400200124,INTERNATIONAL GALLERY OF CONTEMPORARY ARTS,9072791116,PO BOX 100239,61.21824,-149.88931,7,NULL,99502,920128343,1
8400200090,INUPIAT HERITAGE CENTER,9078520422,5421 N STAR ST,70.66976,-155.14303,5,NULL,99723,920042378,4
8400200059,JENSEN-OLSON ARBORETUM,9077890139,23035 GLACIER HIGHWAY,58.48383,-134.77955,2,NULL,99801,272917330,4
8400200043,JESSE LEE HOME,9078658901,745 W 4TH AVENUE SUITE 250,60.20885,-149.38716,4,NULL,99664,263774589,4
8400200079,JILKAAT KWAAN HERITAGE CENTER,9077675485,PO BOX 976,59.24675,-135.47365,5,NULL,99827,731652033,4
8400200015,JUNEAU DOUGLAS CITY MUSEUM,9075863572,155 S SEWARD,58.30418,-134.42701,5,NULL,99801,270980810,3
8400200164,KACHEMAK HERITAGE LAND TRUST,9072355263,315 KLONDIKE AVE,59.64583,-151.53416000000001,2,NULL,99603,943104608,4
8400200166,KAKE TRIBAL HERITAGE FOUNDATION,9077853165,PO BOX 317,56.97824,-133.94876,4,NULL,99830,943149724,4
8400200151,KASILOF REGIONAL HISTORICAL ASSOCIATION,9072622999,PO BOX 3,60.33002,-151.28922,4,NULL,99610,920172991,4
8400200038,KENAI BICENTENNIAL VISITORS AND CULT. CENTER,9072831991,11471 KENAI SPUR HWY,60.55468,-151.26121,5,NULL,99611,204609315,3
8400200040,KENAI HISTORICAL SOCIETY,NULL,PO BOX 1348,60.58442,-151.23509,4,NULL,99611,205241723,4
8409503530,KIMURA GALLERY,9077861800,3211 PROVIDENCE DRIVE,64.81712,-147.87837,7,1,99502,926000147,2
8400200017,KNIK MUSEUM,9073762005,KNIK RD,61.58245,-149.43945,1,NULL,99654,920058042,3
8400200157,KODIAK HISTORICAL SOCIETY,9074865920,101 E MARINE WAY,57.7885,-152.39915,4,NULL,99615,926002560,3
8400200144,KODIAK MARITIME MUSEUM AND ART CENTER,9074860384,PO BOX 1876,57.79263,-152.40165,7,NULL,99615,920165430,3
8400200066,MARIE DRAKE PLANETARIUM,9075002941,PO BOX 23042,58.36674,-134.61082,3,NULL,99801,453069319,4
8400200155,MAXINE & JESSE WHITNEY MUSEUM,NULL,PO BOX 97,61.10482,-146.21652,5,NULL,99686,926000147,4
8400200112,MCCARTHY-KENNICOTT HISTORICAL MUSEUM,9072594550,PO BOX MXY,62.1077,-145.52846,4,NULL,99588,920104701,4
8400200083,MCKINLEY HISTORICAL SOCIETY & MUSEUM,NULL,240 E TUDOR RD,61.1804,-149.87975,4,NULL,99502,910112878,1
8400200012,MUSEUM OF ALASKA TRANSPORTATION AND INDUSTRY,9073761211,3800 W MUSEUM DR,61.58414,-149.44139,1,NULL,99654,920060340,3
8400200140,MUSEUM OF THE ALEUTIANS,9075815150,PO BOX 648,53.87139,-166.54126,5,NULL,99685,920162384,4
8409501670,MUSEUM OF THE NORTH,9074747505,907 YUKON DR,64.81712,-147.87837,5,4,99708,926000147,2
8400200108,MUSEUMS ALASKA,4253122235,PO BOX 3004,59.66896,-151.48517,5,NULL,99502,920097153,4
8400200053,NEW YORK ALASKA HOUSE,NULL,3806 N POINT CIR,61.13325,-149.94851,7,NULL,99502,262877798,1
8400200167,OCEANSALASKA,9072257900,PO BOX 6383,55.35076,-131.67274,6,NULL,99901,943194998,3
8400200009,OSCAR ANDERSON HOUSE,9072742336,420 M STREET,61.22198,-149.88169,4,NULL,99502,920085097,1
8400200119,PALMER HISTORICAL SOCIETY,9077451935,PO BOX 1935,61.59873,-149.11008,4,NULL,99645,920118118,3
8400200036,PALMER MUSEUM OF HISTORY AND ART,9077467668,723 S VALLEY WAY,61.59857,-149.11359,5,NULL,99645,203297367,3
8400200037,PELELIO WAR HISOTIRCAL SOCIETY,9077455541,9201 N SUN VALLEY DRIVE,61.68606,-149.22797,4,NULL,99645,203440561,4
8400200089,PIONEER MEMORIAL PARK,9074591087,PO BOX 70176,64.83685,-147.76725,2,NULL,99708,920042250,1
8400200161,PIONEERS OF ALASKA,9074431907,PO BOX 146,64.49805,-165.41115,4,NULL,99762,926003434,3
8400200173,PRATT MUSEUM,9072358635,3779 BARTLETT STREET,59.6447,-151.5504,7,NULL,99603,920166923,4
8400200080,PRIBILOF ALEUTS,9072232348,615 E 82ND AVE STE 200,61.14654,-149.87117,5,NULL,99502,800508049,1
8400200160,RESURRECTION BAY HISTORICAL SOCIETY,NULL,PO BOX 55,60.20885,-149.38716,4,NULL,99664,926003019,4
8400200061,RIO GRANDE MODELING & HISTORICAL SOCIETY,6142995064,4231 LAUREL ST,38.89506,-104.75644,4,NULL,99502,311748946,2
8400200010,RUSSIAN ORTHODOX MUSEUM,9072767257,605 A ST,61.19955,-149.73354,4,NULL,99502,710879791,1
8400200077,RUSSIAN ORTHODOX SACRED SITES IN ALASKA,9076443463,PO BOX 212315,61.19955,-149.73354,4,NULL,99502,710879791,1
8400200118,SAMUEL FOX MUSEUM,9078424831,PO BOX 273,59.04004,-158.45869,5,NULL,99576,920117700,4
8400200088,SAXMAN,NULL,ROUTE 2 BOX 1 - SAXMAN,55.38073,-131.68901,4,NULL,99901,920041226,4
8400200102,SEALASKA HERITAGE INSTITUTE,9074634844,1 SEALASKA PLZ STE 301,58.30039,-134.40814,5,NULL,99801,920081844,3
8400200126,SEWARD ASSOCIATION FOR THE ADVANCEMENT OF MARINE SCIENCE,9072246300,ALASKA SEALIFE CENTERPO,60.20885,-149.38716,6,NULL,99664,920132479,4
8400200085,SEWARD COMMUNITY LIBRARY,9072244082,239 6TH AVE,60.20885,-149.38716,5,NULL,99664,920018660,4
8400200001,SEWARD MUSEUM,9072243902,336 3RD AVE,60.20885,-149.38716,5,NULL,99664,926003019,4
8400200008,SHELDON JACKSON MUSEUM,9077478981,104 COLLEGE DRIE,57.05064,-135.32213,9,NULL,99835,920112427,3
8400200128,SHELDON MUSEUM AND CULTURAL CENTER,9077662366,PO BOX 269,59.24675,-135.47365,1,NULL,99827,920134317,4
8400200035,SIMON PANEAK MEMORIAL MUSEUM,9076613413,PO BOX 21085,68.24085,-151.89265,5,NULL,99721,202076516,4
8400200100,SITKA HISTORICAL SOCIETY,NULL,330 HARBOR DR,57.04922,-135.34093,4,NULL,99835,920074478,4
8400200148,SITKA MARITIME HERITAGE SOCIETY,NULL,PO BOX 2153,57.06019,-135.33625,1,NULL,99835,920169964,3
8400200050,SITKA SOUND SCIENCE CENTER,9077478878,834 LINCOLN STREET SUITE 200,57.04983,-135.32401,2,NULL,99835,261253086,3
8400200005,SOLDOTNA HISTORICAL SOCIETY,9072623832,461 CENTENNIAL PARK RD,60.49083,-151.0738,4,NULL,99669,920119189,3
8400200120,SOLDOTNA HISTORICAL SOCIETY AND MUSEUM,9072623832,PO BOX 1986,60.4771,-151.0871,4,NULL,99669,920119189,3
8400200062,STORIS MUSEUM,NULL,3201 NOWELL AVE,58.29323,-134.43055,5,NULL,99801,364642971,3
8409504138,STUDENT UNION GALLERY,9077861052,3211 PROVIDENCE DRIVE,64.81712,-147.87837,7,1,99502,926000147,2
8400200113,TALKEETNA HISTORICAL SOCIETY,9077332487,PO BOX 76,62.1755,-149.90017,4,NULL,99676,920109160,4
8400200092,TANANA YUKON HISTORICAL SOCIETY,9074558947,PO BOX 71336,64.84339,-147.71869,4,NULL,99708,920044211,1
8400200032,TENAKEE HISTORICAL COLLECTION,9077362243,PO BOX 633,57.77996,-135.21791,4,NULL,99841,30425229,4
8400200111,TOCHAK HISTORICAL SOCIETY,9075243016,PO BOX 236,62.91264,-154.94429,4,NULL,99627,920104105,4
8400200159,TONGASS HISTORICAL SOCIETY,9072255600,629 DOCK ST,55.34242,-131.64029,4,NULL,99901,926002943,3
8400200054,TREADWELL HISTORIC PRESERVATION & RESTORATION SOCIETY,NULL,PO BOX 240584,58.27846,-134.3996,4,NULL,99824,263289067,3
8409501019,UAA PLANETARIUM AND VISUALIZATION THEATER,9077861800,3211 PROVIDENCE DRIVE,64.81712,-147.87837,3,1,99502,926000147,4
8400200142,VALDEZ HISTORICAL PRESERVATION AND RESTORATION COMMITTEE,NULL,PO BOX 448,61.10482,-146.21652,4,NULL,99686,920164498,4
8400200138,VALDEZ MUSEUM AND HISTORICAL ARCHIVE ASSOCIATION,9078352764,PO BOX 8,61.10482,-146.21652,1,NULL,99686,920159463,4
8400200094,WASILLA-KINK HISTORICAL SOCIETY,9073762005,300 N BOUNDARY ST,61.58245,-149.43945,4,NULL,99654,920058042,3
8400200072,WESTERN HISTORY ASSOCIATION,9074746508,605 GRUENING,64.81712,-147.87837,4,NULL,99708,546044435,2
8400200052,WHALE PROJECT,NULL,15225 POINT LOUISA RD,58.37524,-134.7312,4,NULL,99801,262796849,4
8400200122,WHITESTONE FARMS,9078033075,PO BOX 1229,64.10761,-145.7709,4,NULL,99737,920123743,4
8400200071,WHITTIER MUSEUM ASSOCIATION,NULL,100 WHITTIER STREET,60.77,-148.68,1,NULL,99693,510451736,4
8400200154,WRANGELL MUSEUM,9078743770,296 CAMPBELL DR,56.47183,-132.38707,5,NULL,99929,926000144,4
8400100191,9TH AND 10TH (HORSE) CAVALRY ASSOCIATION,NULL,PO BOX 428,33.5128,-86.81171,4,NULL,35462,392050503,1
8400100163,AFRICAN AMERICAN HERITAGE TRAIL,2515332174,PO BOX 1827,30.68582,-88.04614,5,NULL,36633,271720928,1
8400100409,AIRCRAFT ENGINE HISTORICAL SOCIETY,2566831458,4608 CHARLES DR NW,34.75203,-86.63848,4,NULL,35816,631281222,1
8400100433,ALABAMA BENCH AND BAR HISTORICAL SOCIETY,NULL,PO BOX 722,32.37375,-86.31101,4,NULL,36104,721374279,1
8400100155,ALABAMA CENTER FOR AMERICAN HISTORY,NULL,928 HARGIS DR,33.35966,-86.59573,1,NULL,35043,263936733,4
8400100238,ALABAMA CENTER OF MILITARY HISTORY,NULL,2060A AIRPORT RD SW,34.69017,-86.58225,4,NULL,35816,582082521,1
8400100153,ALABAMA CITY HISTORICAL ASSOCIATION,NULL,PO BOX 4205,33.99526,-86.08196,4,NULL,35904,263821641,1
8400100380,ALABAMA COMPANY JAMESTOWNE SOCIETY,NULL,3036 WESTMORELAND DRIVE,34.6575,-86.52653,4,NULL,35223,631177118,1
8400100083,ALABAMA CONSTITUTION VILLAGE,2565648100,109 GATES AVE SE,34.72664,-86.57223,4,NULL,35816,631182396,1
8400100381,ALABAMA CONSTITUTION VILLAGE FOUNDATION,2565648100,404 MADISON ST SE,34.72861,-86.58469,5,NULL,35816,631182396,1
8400100428,ALABAMA DEPARTMENT OF ARCHIVES AND HISTORY,3343531936,PO BOX 300100,32.37771,-86.291,4,NULL,36104,63600619,1
8400100144,ALABAMA GOSPEL MUSIC CULTURAL ARTS CENTER,2054472208,730 8TH AVE W,33.5115,-86.84821,4,NULL,35204,261819848,1
8400100395,ALABAMA GOVERNORS MANSION,NULL,1001 SOUTH HULL STREET,32.36426,-86.3031,4,NULL,36104,631238510,1
8400100253,ALABAMA HISTORIC IRONWORKS COMMISSION,NULL,12632 CONFEDERATE PKWY,33.26851,-87.08321,4,NULL,35111,630587127,4
8400100231,ALABAMA HISTORICAL RADIO SOCIETY,2059677000,PO BOX 131418,33.51784,-86.81185,4,NULL,35204,581905488,1
8400100298,ALABAMA JAZZ HALL OF FAME,NULL,1631 4TH AVE N,33.51458,-86.81283,5,NULL,35204,630870612,1
8400100208,ALABAMA LABOR ARCHIVES AND HISTORY,3348345136,435 S MCDONOUGH ST,32.37285,-86.30467,1,NULL,36104,470855579,1
8400100192,ALABAMA LIGHTHOUSE ASSOCIATION,NULL,PO BOX 250,30.69651,-88.04401,4,NULL,36633,412024874,1
8400100371,ALABAMA MENS HALL OF FAME,2057262362,1125 E COLLINWOOD CIR,33.46411,-86.78814,5,NULL,36801,631153400,2
8400100286,ALABAMA MINING MUSEUM,2056482442,120 EAST ST,33.73169,-87.09091,1,NULL,35062,630840041,4
8409501098,ALABAMA MUSEUM OF NATURAL HISTORY,2053487550,427 6TH AVENUE NORTHEAST,33.20939,-87.54843,9,5,35487,636001138,4
8409500239,ALABAMA MUSEUM OF THE HEALTH SCIENCES,2059344475,1720 2ND AVENUE SOUTH,33.50142,-86.80725,3,6,35204,636005396,1
8400100222,ALABAMA NATIONAL GUARD HISTORICAL SOCIETY,2058330135,6900 43RD AVENUE NORTH NO 200,33.56265,-86.7397,4,NULL,35204,570888888,1
8400100113,ALABAMA NEGRO LEAGUE BASEBALL MUSEUM FOUNDATION,NULL,PO BOX 12524,33.51634,-86.80581,5,NULL,35204,205655870,1
8400100172,ALABAMA RIVER REGION ARTS CENTER,3345789485,300 W TALLASSEE ST,32.599850000000004,-86.20616,7,NULL,36092,273480154,4
8400100120,ALABAMA SPORTS HALL OF FAME,2053236665,2150 ARRINGTON BLVD N,33.52522,-86.81047,5,NULL,35204,237013282,1
8400100393,ALABAMA TRAIL OF TEARS CORRIDOR ASSOCIATION,6787433868,PO BOX 11145,34.7084,-86.61731,4,NULL,35816,631230100,1
8400100308,ALABAMA TRUST FOR HISTORIC PRESERVATION,2056523497,STATION 45,32.56319,-88.13818,4,NULL,35470,630947714,4
8400100182,ALABAMA VETERANS MUSEUM & ARCHIVES,2567717578,PO BOX 549,34.80672,-86.97072,1,NULL,35612,311624974,3
8400100279,ALABAMA WILDLIFE CENTER,2056637930,100 TERRACE DR,33.32452,-86.79516,6,NULL,35124,630813173,2
8400100125,ALABAMA ZOOLOGICAL SOCIETY,2058790458,2630 CAHABA ROAD,33.48437,-86.77398,6,NULL,35204,237090795,2
8400100388,ALDRIDGE GARDENS,2056828019,3530 LORNA RD,33.38533,-86.79432,2,NULL,35216,631207156,1
8400100275,ALICEVILLE HISTORICAL PRESERVATION COMMISSION,NULL,222 PINE HILL LANE,33.13138,-88.13725,4,NULL,35442,630794562,4
8400100346,ALICEVILLE MUSEUM,2053732363,104 BROAD ST PLAZA,33.12964,-88.16462,1,NULL,35442,631103657,4
8400100244,ALTAMONT SCHOOL,2058792006,4801 ALTAMONT RD S,33.51706,-86.75704,7,NULL,35204,630302110,1
8400100376,AMERICAN INDIAN MUSEUM,NULL,2003 POOLE DRIVE,34.75987,-86.59152,9,NULL,35816,631163085,1
8400100199,ANCIENT AFRICA ENSLAVEMENT AND CIVIL WAR MUSEUM,3344184889,1410 WATER AVE,32.40797,-87.01614,1,NULL,36703,452068398,3
8400100374,ANIMAL HOUSE EXOTIC ANIMALS & OSTRICH FARM,2569748634,2056 COUNTY ROAD 161,34.53421,-87.38741,6,NULL,35650,631161613,4
8400100321,ARAB HISTORICAL SOCIETY,2565866397,PO BOX 352,34.32768,-86.49274,4,NULL,35016,630980262,3
8400100284,ARLINGTON HISTORICAL ASSOCIATION,NULL,3756 EAST FAIRWAY DRIVE,33.50743,-86.747,4,NULL,35204,630829374,2
8409502760,ART GALLERY,2056656400,STATION 6001,33.10622,-86.85865,7,7,35115,636000720,2
8400100092,ARTSREVIVE,3348782787,PO BOX 2548,32.40623,-87.02243,4,NULL,36703,200440925,3
8400100449,ASHVILLE MASONIC LODGE COUNCIL,NULL,99 STEVENS FARM ROAD,33.79484,-86.27299,4,NULL,35953,800610605,4
8400100211,ATCHISON COUNTY HISTORICAL SOCIETY,9133676238,PO BOX 201,39.56301,-95.12723,4,NULL,36633,486134391,3
8400100350,ATMORE HISTORICAL SOCIETY,2513685234,11 ROLLINS PL,31.00903,-87.49114,4,NULL,36502,631114123,3
8400100115,AUBURN PRESERVATION LEAGUE,NULL,PO BOX 2945,32.61251,-85.47712,4,NULL,36831,208457213,1
8400100283,AUTAUGA COUNTY HERITAGE ASSOCIATION,3343610961,102 E MAIN ST,32.45953,-86.47176,4,NULL,36067,630825743,2
8400100407,AUTAUGA GENEALOGICAL SOCIETY,NULL,PO BOX 680668,32.46438,-86.42472,4,NULL,36067,631279860,2
8400100402,B BATTERY 711 AAA GUN BATTALION MEMORIAL,NULL,PO BOX 1173,30.87652,-87.78158,4,NULL,36507,631269511,3
8400100141,BALDWIN COUNTY EXPRESS,2512691593,19432 RADA ROAD,30.50572,-87.60636,1,NULL,36580,261631003,4
8400100282,BALDWIN HERITAGE MUSEUM ASSOCIATION,2519868375,PO BOX 356,30.39654,-87.56298,5,NULL,36530,630815980,4
8400100358,BARBER VINTAGE MOTORSPORT MUSEUM,2056997275,6030 BARBER MOTORSPORTS PARKWAY,33.50171,-86.62444,5,NULL,35204,631125485,4
8400100104,BARBOUR COUNTY GOVERNORS TRAIL,NULL,PO BOX 403,31.84169,-85.43541,4,NULL,36016,203185948,4
8400100095,BARE HANDS GALLERY,NULL,PO BOX 13961,33.51634,-86.80581,7,NULL,35204,201162009,1
8400100150,BAYBEARS CHARITIES,NULL,755 BOLLING BROTHERS BLVD,30.64483,-88.11585,5,NULL,36633,263196982,1
8400100096,BELLINGRATH GARDENS AND HOME,2519732217,12401 BELLINGRATH GARDENS RD,30.4637,-88.15263,2,NULL,36582,201422131,4
8400100088,BERMAN MUSEUM OF WORLD HISTORY,2562376766,840 MUSEUM DR,33.65842,-85.82646,5,NULL,36202,631082554,1
8400100127,BESSEMER HALL OF HISTORY,2054261633,1905 ALABAMA AVE,33.40094,-86.95051,1,NULL,35020,237113175,2
8400100194,BIRMINGHAM BLACK RADIO MUSEUM,NULL,1623 12TH STREET SOUTH,33.49047,-86.80692,5,NULL,35204,412131470,1
8409501975,BIRMINGHAM BOTANICAL GARDENS,2054143900,2612 LANE PARK ROAD,33.48904,-86.77441,2,NULL,35204,631287732,1
8400100229,BIRMINGHAM CIVIL RIGHTS INSTITUTE,2053289696,520 16TH ST N,33.5128,-86.81171,4,NULL,35204,581892067,1
8400100419,BIRMINGHAM HISTORICAL SOCIETY,2052511880,1 SLOSS QUARTERS,33.49589,-86.78154,4,NULL,35204,636050611,1
8400100094,BIRMINGHAM HISTORY CENTER,2052024146,1731 1ST AVE N STE 120,33.51496,-86.80949,1,NULL,35204,200889261,1
8400100214,BIRMINGHAM JEFFERSON HISTORICAL SOCIETY TERM,NULL,PO BOX 130285,33.50743,-86.747,4,NULL,35204,510198758,2
8400100314,BIRMINGHAM LANDMARKS,2052522262,1817 3RD AVE N,33.51496,-86.80949,4,NULL,35204,630958984,1
8400100124,BIRMINGHAM MUSEUM OF ART,2052542565,2000 8TH AVENUE NORTH,33.52206,-86.80939,7,NULL,35204,237077565,1
8400100241,BIRMINGHAM ZOO,2058790409,2630 CAHABA RD,33.48437,-86.77398,6,NULL,35223,621231591,2
8400100201,BLACK BELT MUSEUM,2056523828,UWA STATION 45,32.73363,-88.1937,5,NULL,35470,452905587,4
8400100361,BLACK FREEDMEN'S LIVING HISTORICAL FARM FOR CHILDREN,3348445700,PO BOX 106,32.00294,-86.96219,4,NULL,36741,631131736,4
8409501200,BLACK HISTORY MUSEUM AND RESEARCH LIBRARY,2514057000,351 NORTH BROAD STREET,30.69402,-88.05621,1,8,36633,630507477,4
8400100372,BLOUNTSVILLE HISTORICAL SOCIETY,NULL,1181 BULLARD RD,34.1104,-86.60181,4,NULL,35031,631155307,4
8400100140,BLUE AND GREY MUSEUM OF NORTH ALABAMA,2563504018,723 BANK ST NW,34.59053,-86.98777,1,NULL,35601,261445870,1
8400100319,BRIDGEPORT AREA HISTORIC ASSOCIATION,2564954020,PO BOX 949,34.94947,-85.71959,1,NULL,35740,630968833,3
8400100174,BROWN HAWKINS RURAL LEARNING CENTER,NULL,3936 ROUSE RIDGE CT,32.3314,-86.25291,4,NULL,36104,274919416,1
8400100165,BROWNS CREEK PRESERVATION ASSOCIATION,NULL,205 PINE RD,34.36512,-86.34533,2,NULL,35976,272352328,4
8400100338,BRUNDIDGE HISTORICAL SOCIETY,NULL,117 S MAIN ST,31.72046,-85.81574,4,NULL,36010,631079285,4
8400100295,BURRITT MUSEUM,2565362882,3101 BURRITT DR SE,34.72003,-86.53769,1,NULL,35816,630868992,1
8400100267,BUTLER COUNTY HISTORICAL & GENEALOGICAL SOCIETY,3343839564,PO BOX 561,31.83257,-86.62734,4,NULL,36037,630750036,3
8400100098,CALHOUN COUNTY SPORTS HALL OF FAME,NULL,PO BOX 729,33.82798,-85.78071,5,NULL,36265,201689780,4
8409502904,CALHOUN FINE ARTS GALLERY,2563062695,102 WYNN DR NW,34.71426,-86.65576,7,9,35816,630505871,1
8400100416,CAMP MCDOWELL,2053871806,105 DELONG RD,34.00155,-87.38654,5,NULL,35578,636001873,4
8400100288,CAPRI COMMUNITY FILM SOCIETY,3342624858,1045 E FAIRVIEW AVE,32.35213,-86.29161,5,NULL,36104,630841878,1
8409501251,CARL ELLIOTT HOUSE MUSEUM,2053870511,1411 INDIANA AVENUE,33.83576,-87.26488,4,10,35501,631102108,3
8400100305,CENTER FOR CULTURAL ARTS,2565432787,PO BOX 1507,34.01391,-86.00513,5,NULL,35904,630899081,1
8400100169,CENTER POINT WOMENS PRESERVATION SOCIETY,NULL,349 37TH COURT NE,33.66709,-86.67516,4,NULL,35215,273076166,2
8400100455,CENTRAL CARVER FOUNDATION,2565494742,PO BOX 8563,34.02423,-86.01404,5,NULL,35904,861068765,1
8400100078,CENTRAL CARVER LEGACY MUSEUM,2565494742,1030 TUSCALOOSA AVE,34.00027,-85.95643,5,NULL,35904,861068765,1
8400100268,CHAMBER COUNTY MUSEUM,3348649812,PO BOX 171,32.90652,-85.43804,5,NULL,36862,630750700,4
8400100077,CHEROKEE HISTORICAL MUSEUM,2569277835,101 E MAIN ST,34.15357,-85.67829,4,NULL,35960,237166483,4
8400100189,CHICKASAW HISTORIC PRESERVATION SOCIETY,NULL,209 THIRD STREET,30.7655,-88.08103,4,NULL,36611,364613415,2
8400100195,CHILDREN'S MUSEUM OF ALABAMA,3348322777,PO BOX 1548,32.38083,-86.31088,8,NULL,36104,421680937,1
8400100431,CHILDREN'S MUSEUM OF THE SHOALS,2567650500,2810 DARBY DR,34.84045,-87.64879,8,NULL,35630,721371633,1
8400100410,CHOCTAW COUNTY GENEALOGICAL SOCIETY,NULL,4244 COUNTY RD 43,32.03716,-88.17437,4,NULL,36904,631281672,4
8400100318,CHOCTAW COUNTY HISTORICAL MUSEUM,2518432501,2842 ARARAT ROAD,32.11194,-88.23785,7,NULL,36921,630968762,4
8400100273,CHOCTAW COUNTY HISTORICAL SOCIETY,NULL,210 W SMITH STREET,32.0877,-88.21657,4,NULL,36904,630778962,4
8400100302,CHOM INCORPORATED OF TUSCALOOSA COUNTY,2053494235,2213 UNIVERSITY BLVD,33.21045,-87.56584,8,NULL,35487,630886689,1
8409500336,CHRISTENBERRY PLANETARIUM,2057262011,800 LAKESHORE DRIVE,33.46435,-86.7954,3,11,35204,630312914,2
8409502963,CHURCH GALLERY,NULL,301 SPARKMAN DR,34.74054,-86.62928,7,12,35816,630520830,1
8400100073,CLARKE CO HISTORICAL MUSEUM,2512752014,116 W COBB ST,31.68673,-87.78712,4,NULL,36451,237260098,4
8400100264,CLARKE COUNTY HISTORICAL SOCIETY & MUSEUM,2512752014,116 COBB STREET,31.68673,-87.78712,4,NULL,36451,630727557,4
8400100306,CLAY COUNTY HISTORICAL SOCIETY,2562520138,PO BOX 998,33.24363,-85.84636,4,NULL,36251,630900704,4
8400100060,CLAY HOUSE MUSEUM,2563251018,16 MAIN ST,34.69313,-86.74973,5,NULL,35758,421604918,2
8400100210,CLAY LEGACY ASSOCIATION,2056815158,PO BOX 61,33.69993,-86.60455,4,NULL,35048,470957257,4
8400100070,CLEMENTS HOUSE,8022084283,1802 20TH AVE,33.23036,-87.58354,4,NULL,35476,631188043,2
8400100161,COAST GUARD HISTORICAL SOCIETY,NULL,2050 OAK STREET,34.70098,-87.52815,4,NULL,35646,271533813,4
8400100290,COLEMAN CENTER FOR THE ARTS,2053922005,630 AVENUE A ST,32.48383,-88.29437,7,NULL,36925,630844429,4
8400100097,COLLINSVILLE HISTORICAL ASSOCIATION,NULL,PO BOX 849,34.26189,-85.86513,4,NULL,35961,201529088,4
8400100408,COLUMBIA HISTORIAL SOCIETY,3346968029,PO BOX335,31.27906,-85.12623,4,NULL,36319,631280912,4
8400100215,CONDE CHARLOTTE MUSEUM HOUSE,2513425199,2600 SARATOGA LN,33.24112,-87.5261,4,NULL,35487,510228142,1
8400100205,COOKS NATURAL SCIENCE MUSEUM,2563509347,1741 5TH AVENUE SE,34.58039,-86.98293,3,NULL,35601,460750517,1
8400100300,COOSA COUNTY HISTORICAL SOCIETY,NULL,PO BOX 5,32.86725,-86.21548,4,NULL,35136,630879969,4
8400100312,COOSA HISTORICAL PRESERVATION AUTHORITY,NULL,PO BOX 39,32.86725,-86.21548,4,NULL,35136,630957200,4
8400100200,COST OF FREEDOM VETERANS MUSEUM,2564982499,PO BOX 813,34.316,-86.49575,5,NULL,35016,452440701,3
8400100445,COURTLAND HERITAGE MUSEUM,2566372710,PO BOX 245,34.66655,-87.31032,1,NULL,35618,800302022,4
8400100291,COVINGTON HISTORICAL SOCIETY,3342220674,PO BOX 1582,31.30243,-86.48793,4,NULL,36420,630852981,3
8400100126,CRADLE OF THE CONFEDERACY RAILROAD MUSEUM OF MONTGOMERY,NULL,BOX 1851,32.37375,-86.31101,5,NULL,36104,237106142,1
8400100322,CRENSHAW COUNTY HISTORICAL SOCIETY,3343356575,2856 US HWY 31 N,31.74659,-86.28191,4,NULL,36051,630985647,4
8400100111,CULLMAN COUNTY HISTORICAL SOCIETY,NULL,PO BOX 804,34.18014,-86.85111,4,NULL,35056,205588114,3
8400100062,DAPHNE MUSEUM,2516219620,405 DRYER AVE,30.62109,-87.87618,5,NULL,36526,631277848,1
8400100354,DEFENDERS OF FORT MORGAN,2515402420,1929 STATE HIGHWAY 180,30.27212,-87.68308,4,NULL,36542,631120044,4
8400100176,DEKALB COUNTY HOSIERY MUSEUM,NULL,PO BOX 680647,34.47746,-85.76825,5,NULL,35968,300120729,4
8400100076,DEPOT MUSEUM,2568455714,N 5TH ST,34.43922,-85.71449,5,NULL,35967,630869280,4
8400100160,DIVINE DESTINYS DANCE,NULL,PO BOX,33.72529,-86.65841,4,NULL,35204,271306768,4
8409502091,DONALD E. DAVIS ARBORETUM,3348446425,249 SCIENCES CENTER CLASSROOM,32.6056,-85.49043,2,13,36831,636000724,1
8400100360,DONNELL HOUSE BOARD,2562320743,PO BOX 465,34.80508,-86.98225,4,NULL,35612,631126688,3
8400100333,DOTHAN AREA BOTANICAL GARDENS,3347933224,5130 HEADLAND AVE,31.28818,-85.34601,2,NULL,36303,631059119,3
8409503097,DURBIN GALLERY,8005235793,900 ARKADELPHIA ROAD,33.51394,-86.85365,7,14,35204,630708730,1
8400100400,EAST ALABAMA ARTISTS,NULL,PO BOX 443,33.65842,-85.82646,7,NULL,36202,631258383,1
8400100352,EAST MONTGOMERY COUNTY HISTORICAL SOCIETY,NULL,PO BOX 49,32.35664,-86.09503,4,NULL,36057,631115201,4
8400100247,EASTERN SHORE ART ASSOCIATION,2519282228,401 OAK AVE,30.52659,-87.90355,7,NULL,36532,630459459,1
8400100304,EDMUND LAW ROGERS SMITH-HARRISON,2056698767,50 LESTER STREET,33.17925,-86.60898,1,NULL,35051,630897820,3
8409503113,EICHOLD GALLERY,2513803863,4000 DAUPHIN ST,30.68574,-88.14806,7,15,36633,630302179,4
8409501423,EICHOLD-HEUSTIS MEDICAL MUSEUM OF THE SOUTH,NULL,1504 SPRINGHILL AVE,30.69757,-88.17356,5,16,36633,630477348,4
8400100316,EIGHTH AIR FORCE HISTORICAL SOCIETY,NULL,1903 BLACKJACK RD,33.42958,-86.82467,4,NULL,35173,630964472,1
8400100332,ELMORE COUNTY HISTORICAL SOCIETY,NULL,PO BOX 912,32.53707,-86.20556,4,NULL,36092,631043359,3
8400100437,ENDOWMENT FOR MCWANE SCIENCE CENTER,2057148300,200 19TH ST N,33.51539,-86.80816,3,NULL,35204,721396280,1
8400100447,ENDOWMENT FOR THE PRESERVATION 0F ELEVATING HISTORY,NULL,354 MORGAN AVE,30.67475,-88.09607,4,NULL,36633,800390812,1
8400100198,EPES HISTORICAL ASSOCIATION,2056527190,PO BOX 198,32.67166,-88.16305,4,NULL,35460,451141355,4
8400100138,ESCAMBIA COUNTY HISTORICAL SOCIETY,2518091528,PO BOX 276,31.10792,-87.07114,4,NULL,36427,237410066,3
8400100323,ETOWAH HISTORICAL SOCIETY,NULL,PO BOX 8131,34.02262,-86.04895,4,NULL,35904,630999086,1
8400100424,EUFAULA HERITAGE ASSOCIATION,3346873793,PO BOX 787,31.89681,-85.14599,4,NULL,36072,636155201,3
8400100180,EUTAW AREA CHAMBER OF COMMERCE TRUST,NULL,PO BOX 31,32.88911,-87.90988,4,NULL,35462,311622515,4
8409501436,EVELYN BURROW MUSEUM,2563528457,801 MAIN STREET NW,34.07372,-86.7792,5,17,35077,630498828,3
8400100270,EXPLORE CENTER,2513448066,PO BOX 1968,30.6708,-88.10646,3,NULL,36633,630762151,1
8400100071,EXPLOREUM MUSEUM OF DISCOVERY,2512086893,65 GOVERNMENT ST,30.69034,-88.03979,3,NULL,36633,630762151,1
8400100166,FAIRHOPE MUSEUM OF HISTORY,2519291471,PO BOX 75,30.52517,-87.9029,1,NULL,36532,272431378,1
8400100123,FAYETTE COUNTY HISTORICAL SOCIETY,NULL,PO BOX 534,33.68683,-87.82637,4,NULL,35555,237061795,3
8400100066,FENDALL HALL,3346878469,917 W BARBOUR ST,31.8911,-85.1683,4,NULL,36072,631225568,4
8400100177,FLOMATON AREA RAILROAD MUSEUM,2512961110,PO BOX 225,31.026,-87.24941,5,NULL,36441,300579538,4
8400100369,FORT DALE PIONEER SETTLEMENT,NULL,158 PAGE RD,31.60889,-86.61038,4,NULL,36033,631146615,4
8400100310,FORT MIMS RECONSTRUCTION ASSOCIATION,NULL,94 WEBB ROAD,31.4705,-87.42077,4,NULL,36445,630954637,4
8400100456,FORT MORGAN FOUNDATION,2515405447,35 SOUTH SECTION STREET,30.69305,-88.04213,4,NULL,36532,870784414,1
8400100296,FORT PAYNE DEPOT MUSEUM,2568455714,PO BOX 681420,34.43922,-85.71449,5,NULL,35967,630869280,4
8400100190,FORTSON MUSEUM & ARCHIVES,NULL,140 BLAIR FARMS RD,33.67461,-86.40964,1,NULL,35120,371548000,4
8400100337,GADSDEN MUSEUM OF ART,2565467365,2829 W MEIGHAN BLVD,34.02262,-86.04895,7,NULL,35904,631076879,1
8400100254,GADSDEN MUSEUM OF FINE ARTS,2565467365,515 BROAD STREET,34.01391,-86.00513,7,NULL,35904,630631003,1
8400100108,GARDENDALE HISTORICAL SOCIETY,2056315662,PO BOX 1044,33.69468,-86.83788,4,NULL,35071,204599041,4
8400100187,GENEVA COUNTY ALABAMA HISTORICAL SOCIETY,3346842100,PO BOX 206,31.0453,-85.87905,4,NULL,36340,341979481,3
8400100398,GEORGE WASHINGTON CARVER INTERPRETIVE MUSEUM,3347120933,305 N FOSTER ST,31.22673,-85.39257,5,NULL,36303,631252575,1
8409501264,GORGAS HOUSE,2053485906,810 CAPSTONE DRIVE,33.20939,-87.54843,4,5,35487,636001138,1
8400100280,GREENE COUNTY HISTORICAL SOCIETY,2052920015,PO BOX 746,32.84129,-87.89041,4,NULL,35462,630814351,4
8409500494,GULF COAST EXPLOREUM SCIENCE CENTER,NULL,65 GOVERNMENT STREET,30.69034,-88.03979,3,NULL,36633,630762151,4
8400100390,GULF COAST INTERNATIONAL MUSEUM,NULL,PO BOX 204,30.69651,-88.04401,1,NULL,36633,631212771,1
8400100226,GUNTERSVILL HISTORICAL SOCIETY,NULL,PO BOX 236,34.36776,-86.37909,4,NULL,35976,570907699,4
8400100436,GUNTERSVILLE MUSEUM & CULTURAL CENTER ASSOCIATION,2565717597,1215 RAYBURN AVE,34.34911,-86.3036,5,NULL,35976,721381517,3
8400100051,GUNTERSVILLE MUSEUM AND CULTURAL CENTER,2565717597,1215 RAYBURN AVE,34.34911,-86.3036,5,NULL,35976,721381517,3
8400100448,GURLEY HISTORICAL ASSOCIATION,NULL,PO BOX 154,34.7027,-86.43197,4,NULL,35748,800536377,4
8409501496,HALL OF FAME OF DISTINGUISHED BAND CONDUCTORS,NULL,UNIVERSITY AVENUE,31.79828,-85.95519,5,18,36082,636001102,4
8409503358,HAMMOND HALL GALLERY,2567825781,700 PELHAM ROAD NORTH,33.79791,-85.76118,7,19,36265,636001099,4
8400100219,HANCEVILLE HISTORICAL PRESERVATION GROUP,NULL,773 COUNTY ROAD 622,34.11784,-86.76098,4,NULL,35077,522442424,4
8400100438,HANK WILLIAMS MEMORIAL FOUNDATION,3342623600,118 COMMERCE ST,32.3801,-86.31167,5,NULL,36104,721397865,1
8400100365,HANK WILLIAMS MUSEUM AND FESTIVAL,3343762396,PO BOX 310,31.65737,-86.74566,1,NULL,36033,631135382,4
8400100056,HANK WILLIAMS SENIOR BOYHOOD HOME AND MUSEUM,3343762396,127 ROSE ST,31.65737,-86.74566,1,NULL,36033,631135382,4
8400100089,HARRIS BARRETT SCHOOL,NULL,1755 COUNTY ROAD 27,32.47951,-85.76358,4,NULL,36083,10553804,4
8400100325,HARTSELLE HISTORICAL SOCIETY,NULL,PO BOX 852,34.44638,-86.93179,4,NULL,35640,631003555,2
8400100452,HARTSELLE MILITARY MUSEUM,2562277308,PO BOX 992,34.44281,-86.93845,5,NULL,35640,820565568,2
8400100103,HEART GALLERY OF ALABAMA,2054451293,716 37TH ST S,33.51713,-86.77651,7,NULL,35204,203026109,1
8400100421,HEART OF DIXIE RAILROAD MUSEUM,2056683435,PO BOX 727,33.1092,-86.7499,1,NULL,35040,636057050,4
8400100401,HELEN KELLER BIRTHPLACE,2563834066,300 N COMMONS ST W,34.73802,-87.70631,5,NULL,35674,631259625,2
8400100451,HENRY COUNTY HISTORICAL GROUP,NULL,9127 CO RD 99,31.47599,-85.21885,4,NULL,36345,810570090,4
8400100100,HENRY COUNTY VETERANS MEMORIAL PARK,NULL,PO BOX 115,31.53708,-85.12046,4,NULL,36373,201991965,4
8400100404,HISTORIC BETHEL BAPTIST CHURCH,NULL,3200 28TH AVE N,33.5513,-86.80186,4,NULL,35204,631271978,1
8400100118,HISTORIC DOWNTOWN ANNISTON BUSINESS ASSOCIATION,NULL,1012 NOBLE STREET,33.65731,-85.82986,4,NULL,36202,208934192,1
8400100427,HISTORIC ESTATES LANDMARKS AND PROPERTIES,NULL,1028 DAWSON AVENUE APT S,32.43436,-87.02444,5,NULL,36703,651284589,3
8400100259,HISTORIC HALE COUNTY PRESERVATION SOCIETY,NULL,1110 MAIN STREET,32.70357,-87.59443,4,NULL,36744,630719059,4
8400100246,HISTORIC MOBILE PRESERVATION SOCIETY,NULL,200 RAPIER AVE,30.68068,-88.06003,4,NULL,36633,630401485,1
8400100383,HISTORIC NORTHPORT,2053390488,PO BOX 393,33.22819,-87.57759,4,NULL,35476,631188043,2
8400100109,HISTORIC RESTORATION SOCIETY,NULL,PO BOX 70047,30.69597,-88.10617,4,NULL,36633,205235080,1
8400100230,HISTORIC SHELBY ASSOCIATION,7044843100,PO BOX 176,33.08552,-86.54245,1,NULL,35143,581893440,4
8400100036,HISTORY MUSEUM OF MOBILE,2512087569,111 SOUTH ROYAL STREET,30.69234,-88.07704,1,NULL,36633,631106693,1
8400100142,HOLLY POND HISTOICAL SOCIETY,NULL,3425 COUNTY ROAD 1650,34.18191,-86.62915,4,NULL,35083,261683010,4
8400100379,HOLT STREET BAPTIST CHURCH HISTORICAL SOCIETY,3342614141,1870 SOUTH COURT STREET,32.35256,-86.30851,4,NULL,36104,631175393,1
8400100207,HOMER B WILSON JR VINTAGE MUSEUM,NULL,20524 HWY 431N,34.40105,-86.2544,3,NULL,35976,462991869,4
8400100223,HOOVER HISTORICAL SOCIETY,2058229392,PO BOX 360233,33.40819,-86.85433,4,NULL,35216,570892846,1
8400100197,HOUSTON HISTORICAL SOCIETY,NULL,PO BOX 74,34.15651,-87.27872,4,NULL,35572,450540727,4
8400100429,HUNTSVILLE - MADISON COUNTY ATHLETIC HALL OF FAME,NULL,PO BOX 566,34.72753,-86.59342,4,NULL,35816,710954514,1
8409400270,HUNTSVILLE MUSEUM OF ART,NULL,300 CHURCH ST SW,34.72905,-86.58787,5,NULL,35816,630644957,1
8400100278,HUNTSVILLE-MADISON COUNTY HISTORICAL SOCIETY,2565365737,PO BOX 666,34.72753,-86.59342,4,NULL,35816,630805313,1
8400100040,IMAGINATION PLACE,2565432787,501 BROAD ST,34.01391,-86.00513,4,NULL,35904,630899081,1
8400100269,INTERNATIONAL MOTORSPORTS HALL OF FAME & MUSEUM,2563625002,PO BOX 1018,33.43764,-86.10313,5,NULL,35161,630751972,3
8400100148,IRONDALE AL HISTORICAL SOCIETY,NULL,1910 1ST AVE SOUTH,33.53794,-86.70836,4,NULL,35210,262945770,2
8400100341,ISABEL ANDERSON COMER MUSEUM & ARTS CENTER,2562454016,PO BOX 245,33.16453,-86.25086,7,NULL,35150,631086519,3
8409500556,JACKSONVILLE STATE UNIVERSITY PLANETARIUM,2567825743,700 PELHAM ROAD NORTH,33.79791,-85.76118,3,19,36265,636001099,2
8400100234,JEMISON-VAN DE GRAAFF MANSION FOUNDATION,2057582906,PO BOX 1216,33.20224,-87.56509,4,NULL,35487,581986641,1
8400100203,JESSE OWENS MUSEUM AND PARK,2569743636,174 COUNTY ROAD 241,34.53612,-87.2792,2,NULL,35650,454516928,4
8400100343,JOHN SOLOMON MUSEUM OF LIVING HISTORY,NULL,1136 7TH AVE,34.01233,-86.01936,5,NULL,35904,631099463,1
8400100043,JOHN W INZER MUSEUM,2053382412,229 5TH STREET,33.81868,-86.23727,5,NULL,35953,570886830,4
8409501563,JONATHAN B. LOVELACE MUSEUM,3348444750,392 SOUTH DONAHUE DRIVE,32.60118,-85.49046,5,13,36831,636000724,1
8409501121,JONES ARCHAEOLOGICAL MUSEUM,2053712572,739 UNIVERSITY BLVD,33.20939,-87.54843,9,5,35487,636001138,1
8409503506,JULE COLLINS SMITH MUSEUM OF FINE ARTS,3348441484,901 SOUTH COLLEGE STREET,32.5888,-85.48474,7,13,36831,636000724,1
8409501569,KATHRYN TUCKER WINDHAM MUSEUM,NULL,2800 SOUTH ALABAMA AVENUE,31.47991,-87.33343,5,20,36460,630503016,4
8400100303,KENTUCK ART CENTER & MUSEUM,2057581257,503 MAIN AVE,33.21904,-87.57842,7,NULL,35476,630896818,2
8400100446,KILLEN HISTORICAL COMMISSION,NULL,9160 TURTLE POINT DRIVE,34.85189,-87.55926,4,NULL,35645,800386553,4
8400100351,LAGRANGE LIVING HISTORICAL ASSOCIATION,2564469324,PO BOX 306,34.66894,-87.53617,4,NULL,35646,631114994,4
8400100348,LAMAR COUNTY GENEALOGICAL AND HISTORICAL SOCIETY,NULL,PO BOX 357,33.75431,-88.10535,4,NULL,35592,631109899,4
8400100252,LANDMARKS FOUNDATION OF MONTGOMERY,3342404500,301 COLUMBUS ST,32.38218,-86.30519,4,NULL,36104,630586480,1
8400100131,LANDMARKS OF DEKALB COUNTY,NULL,PO BOX 680518,34.47746,-85.76825,4,NULL,35967,237259371,4
8400100454,LANIER HIGH SCHOOL HISTORIC SOCIETY,NULL,507 N 11TH AVE,32.86426,-85.219220000000007,4,NULL,36863,841649326,3
8400100326,LAWRENCE COUNTY HISTORICAL COMMISSION,2569741757,PO BOX 728,34.48047,-87.29119,4,NULL,35650,631003896,3
8409503569,LBWCC ART GALLERY,NULL,1000 DANNELLY BLVD,31.31491,-86.46469,7,21,36420,630576487,4
8400100186,LEDS SCENIC BYWAY MANAGEMENT TEAM,NULL,6554 LYNN CIR,33.53762,-86.57852,4,NULL,35094,331142019,2
8400100130,LEE COUNTY HISTORICAL SOCIETY,3348873007,PO BOX 206,32.60443,-85.59934,4,NULL,36865,237227476,4
8400100387,LEEDS HISTORICAL SOCIETY,2056992721,PO BOX 465,33.46095,-86.58808,4,NULL,35094,631206763,4
8400100353,LIMESTONE COUNTY ALABAMA ARCHIVES,2562336404,PO BOX 658,34.80241,-86.97004,4,NULL,35612,631118100,3
8400100262,LIMESTONE COUNTY HISTORICAL SOCIETY,NULL,PO BOX 82,34.80508,-86.98225,4,NULL,35612,630719832,3
8400100236,LINDEN HISTORICAL SOCIETY,NULL,14230 AL HWY 38,32.21881,-87.73882,4,NULL,36748,582019106,4
8409400339,MACILES MUSEUM OF MISCELLANEA,NULL,685 COUNTY ROAD 16,33.31268,-87.94651,5,NULL,35466,455621085,4
8400100329,MADISON COUNTY MILITARY HERITAGE,2565321662,100 NORTH SIDE SQ PO BOX 398,34.7305,-86.58595,5,NULL,35816,631025058,1
8400100299,MADISON STATION HISTORICAL PRESERVATION SOCIETY,NULL,BOX 711,34.69407,-86.74919,4,NULL,35758,630875376,2
8400100028,MAGNOLIA GROVE,3346248618,1002 HOBSON ST,32.71317,-87.59424,4,NULL,36744,630870617,4
8409503638,MALONE GALLERY OF FINE ART,3346703391,UNIVERSITY AVENUE,31.79828,-85.95519,7,18,36082,636001102,4
8400100249,MARENGO COUNTY HISTORICAL SOCIETY,3342890599,311 N WALNUT AVE,32.49096,-87.84868,4,NULL,36732,630516397,4
8400100425,MARENGO COUNTY HISTORICAL SOCIETY,NULL,PO BOX 490,32.49096,-87.84868,4,NULL,36732,636187139,4
8400100444,MARENGO COUNTY HISTORY-ARCHIVES,3342890599,PO BOX 1144,32.51644,-87.83766,4,NULL,36732,770668636,3
8400100146,MARENGO COUNTY SPORTS HALL OF FAME,NULL,PO BOX 784,32.49096,-87.84868,5,NULL,36732,262621160,4
8409503647,MARIAN ACREEï¿½TUCKER GALLERY,NULL,302 BIBB ST,32.63066,-87.31662,7,22,36756,630288850,4
8400100331,MARIETTA L JOHNSON MUSEUM,2519908601,10 S SCHOOL ST,30.52388,-87.90081,1,NULL,36532,631041380,1
8400100188,MARION COUNTY HISTORICAL SOCIETY,NULL,PO BOX 492,34.16018,-87.99838,4,NULL,35570,352278120,4
8400100411,MARSHALL COUNTY SPORTS HALL OF FAME,NULL,PO BOX 744,34.20111,-86.17222,1,NULL,35957,631281790,3
8400100362,MCCOY CENTER FOR COMMUNITY SERVICE,2053272957,730 8TH AVE W,33.5115,-86.84821,4,NULL,35204,631133420,1
8409500650,MCWANE SCIENCE CENTER,2057148347,200 19TH STREET N,33.51539,-86.80816,3,NULL,35204,581933712,1
8409503687,MEADOWS GALLERY,NULL,1001 GEORGE WALLACE DR,33.99679,-85.99107,7,23,35904,630501425,4
8400100453,MENTONE AREA PRESERVATION ASSOCIATION,NULL,PO BOX 50,34.53259,-85.56267,4,NULL,35984,830469656,4
8400100458,MILDRED WARNER HOUSE,2055536200,PO BOX 48999,33.2084,-87.56158,4,NULL,35487,912004069,1
8400100256,MOBILE HISTORIC DEVELOPMENT COMMISSION,2512087281,PO BOX 1827,30.6708,-88.10646,4,NULL,36633,630654347,1
8400100347,MOBILE MEDICAL MUSEUM,2514151109,1664 SPRINGHILL AVE,30.69234,-88.07704,1,NULL,36633,631106693,1
8400100026,MOBILE MUSEUM OF ART,2512085200,4850 MUSEUM DR,30.70401,-88.15462,7,NULL,36633,631162561,1
8400100162,MOBILE ROCK & GEM SOCIETY,NULL,1324 FOREST DELL ROAD,30.71661,-88.14435,9,NULL,36633,271535187,1
8400100327,MOBILE SPORTS HALL OF FAME,NULL,1074 SOUTHERN WAY,30.66666,-88.18115,5,NULL,36633,631009605,1
8400100240,MOBILE ZOO,2516491845,15161 WARD RD W,30.82633,-88.39683,6,NULL,36587,582518635,4
8400100340,MONROE COUNTY HERITAGE MUSEUM,2515757433,PO BOX 1637,31.51158,-87.32765,1,NULL,36461,631085886,3
8400100147,MONROE COUNTY HERITAGE MUSEUM ENDOWMENT,2515757433,31 N ALABAMA AVE,31.51158,-87.32765,5,NULL,36461,262628601,3
8400100213,MONTGOMERY AREA ZOOLOGICAL SOCIETY,3342404900,PO BOX 3242,32.42108,-86.27306,6,NULL,36104,510193586,1
8400100237,MONTGOMERY COUNTY HISTORICAL SOCIETY,3342641837,512 S COURT ST,32.37047,-86.30888,4,NULL,36104,582046324,1
8400100029,MONTGOMERY MUSEUM OF FINE ARTS,3342404333,ONE MUSEUM DRIVE,32.3526,-86.2087,7,NULL,36104,636049847,1
8400100418,MONTGOMERY MUSEUM OF FINE ARTS ASSOCIATION,3342404333,1 MUSEUM DR,32.3526,-86.2087,7,NULL,36104,636049847,1
8400100315,MONTGOMERY WORLD HERITAGE MUSEUM,NULL,119 W JEFF DAVIS AVENUE,32.36612,-86.31063,5,NULL,36104,630959638,1
8400100366,MONTROSE HISTORIC PRESERVATION SOCIETY,NULL,PO BOX 637,30.56595,-87.90195,4,NULL,36559,631137012,1
8409503736,MOODY GALLERY OF ART,2053481890,103 GARLAND HALL,33.20939,-87.54843,7,5,35487,636001138,2
8400100357,MORGAN COUNTY GENEALOGICAL SOCIETY,NULL,624 BANK STREET NE,34.61182,-86.98597,4,NULL,35601,631123958,1
8409501133,MOUNDVILLE ARCHAEOLOGICAL PARK,2053712234,634 MOUND PARK,33.20939,-87.54843,9,5,35474,636001138,1
8400100212,MUSANN CORP,NULL,PO BOX 1587,33.65842,-85.82646,9,NULL,36202,510188791,1
8400100328,MUSEUM OF EAST ALABAMA,3347492751,PO BOX 3085,32.64708,-85.38025,5,NULL,36801,631022145,1
8400100168,MUSEUM OF MOBILE,2512087569,111 S ROYAL ST,30.6959,-88.04303,4,NULL,36633,273072418,1
8400100257,MUSEUM OF THE CITY OF MOBILE,2512087569,10 WISTERIA AVENUE,30.69015,-88.04008,5,NULL,36633,630694971,1
8400100031,MUSEUMS OAKLEIGH MUSEUM,2514321281,350 OAKLEIGH PL,30.68068,-88.06003,4,NULL,36633,630401485,1
8400100206,MUSTANG MUSEUM OF AMERICA,NULL,10830 AL HIGHWAY 1,33.57656,-86.49679,7,NULL,35120,461395428,4
8400100277,NATCHEZ TRACE GENALOGICAL SOCIETY,NULL,PO BOX 420,34.80175,-87.6751,4,NULL,35630,630804628,1
8400100033,NATIONAL MARITIME MUSEUM,2514368901,250 N WATER ST,30.69698,-88.04092,5,NULL,36633,631102879,1
8400100345,NATIONAL MARITIME MUSEUM OF THE GULF OF MEXICO,2514368901,PO BOX 3005,30.6959,-88.04303,5,NULL,36633,631102879,1
8409400476,NATIONAL MARITIME MUSUEM OF THE GULF OF MEXICO HOLDINGS,NULL,PO BOX 3005,30.6959,-88.04303,5,NULL,36633,463009387,1
8400100335,NATIONAL VOTING RIGHTS MUSEUM AND INSTITUTE,3344180800,PO BOX 1366,32.40298,-87.01724,5,NULL,36703,631067870,4
8400100242,NAUVOO HISTORICAL SOCIETY,2053871709,9959 HIGHWAY 195,33.97136,-87.34601,4,NULL,35501,621578456,4
8400100422,NORTH ALABAMA RAILROAD MUSEUM,2568516276,PO BOX 4163,34.78365,-86.5462,1,NULL,35816,636065813,4
8400100233,NORTH ALABAMA SCIENCE CENTER,2568374536,102 D WYNN DRIVE,34.75149,-86.69326,3,NULL,35816,581962874,1
8400100171,NORTH ALABAMA VIETNAM PILOTS ASSOCIATION,NULL,PO BOX 8406,34.70022,-86.64048,4,NULL,35816,273395716,4
8400100016,NORTHPORT HERITAGE MUSEUM,2055238720,1991 PARK ST,33.23036,-87.58354,4,NULL,35476,631188043,2
8400100114,OAKVILLE INDIAN MOUNDS,2569052494,1219 COUNTRY ROAD 187,34.43827,-87.18117,4,NULL,35619,205702017,4
8400100406,OLD METHODIST CHURCH MUSEUM OF DAPHNE,2516219620,PO BOX 847,30.6015,-87.90917,5,NULL,36526,631277848,1
8400100330,OLD MOBILE,NULL,PO BOX 161314,30.66739,-88.12781,4,NULL,36633,631029756,1
8400100258,OLD TOWNE PRESERVATION ASSOCIATION,NULL,716 EAST CLINTON AVE,34.73564,-86.58271,4,NULL,35816,630707486,1
8400100274,OPELIKA HISTORIC PRESERVATION SOCIETY,3347490898,PO BOX 4092,32.65391,-85.38525,4,NULL,36801,630789014,1
8400100415,PALISADES PARK,2052740017,1225 PALISADES PARKWAY,33.98259,-86.46695,2,NULL,35121,636001422,4
8400100239,PARADISE GARDENS PARK & MUSEUM,2055873090,2568 HIGHWAY 93,33.29111,-86.91321,2,NULL,35080,582196159,4
8409501722,PAUL W. BRYANT MUSEUM,NULL,739 UNIVERSITY BLVD,33.20939,-87.54843,5,5,35487,636001138,1
8400100133,PEA RIVER HISTORICAL & GENEALOGICAL SOCIETY,3343932901,PO BOX 310628,31.31533,-85.85463,4,NULL,36331,237281907,3
8400100217,PEINHARDT LIVING HISTORY FARM FOUND ATION,NULL,1831 4TH ST SW,34.17122,-86.86306,4,NULL,35056,522150056,3
8400100403,PEOPLES HISTORICAL MUSEUM,3343616006,343 N COURT ST STE H,32.46754,-86.47505,4,NULL,36067,631271845,2
8400100289,PERRY COUNTY HISTORICAL AND PRESERVATION SOCIETY,NULL,PO BOX 257,32.63446,-87.31793,4,NULL,36756,630843245,4
8400100091,PETERMAN HISTORICAL SOCIETY,NULL,167 MAIN ST,31.58501,-87.26272,4,NULL,36471,113764925,4
8409400553,PHENIX CITY MUSEUM,NULL,601 12TH ST,32.469,-85.00201,5,NULL,36867,464584777,2
8400100159,PICKENS COUNTY COURTHOUSE,NULL,PO BOX 382,33.25027,-88.1561,4,NULL,35447,271257620,4
8400100309,PICKENS COUNTY GENEALOGICAL SOCIETY,2053647830,793,33.32262,-87.89038,4,NULL,35466,630947935,4
8409400555,PIKE COUNTY MUSEUM,NULL,PO BOX 967,31.82285,-85.94671,5,NULL,36082,630947414,4
8400100185,PINTLALA HISTORICAL ASSOCIATION,3342887414,621 PETTUS RD,32.15148,-86.36178,4,NULL,36043,320356534,4
8400100119,PIONEER MUSEUM OF ALABAMA,3345663597,248 HIGHWAY 231 N,31.85412,-85.99719,1,NULL,36082,237004506,3
8400100196,PLEASANT GROVE PRIMITIVE BAPTIST CHURCH,NULL,401 S COUNTY RD 20,31.46362,-85.56155,4,NULL,36360,432023916,4
8400100170,RANDOLPH COUNTY HISTORICAL SOCIETY,7655841334,10840 CRAGFORD ROAD,40.16907,-84.98254,4,NULL,36255,273126699,3
8400100105,RED BAY MUSEUM,NULL,400 4TH ST SW,34.44257,-88.14745,3,NULL,35582,203193651,4
8400100255,RICHARDS-DAR HOUSE MUSEUM,2512087320,256 N JOACHIM ST,30.68979,-88.05529,4,NULL,36633,630644989,1
8400100430,ROEBUCK SPRINGS HISTORIC PRESERVATION SOCIETY,NULL,508 RIDGE RD,33.57503,-86.70574,4,NULL,35204,721345154,1
8409501764,ROSA PARKS LIBRARY AND MUSEUM,3342418615,252 MONTGOMERY STREET,32.37663,-86.3111,5,18,36104,636001102,1
8400100320,RUSSELL COUNTY HISTORICAL COMMISSION,3342978225,PO BOX 3411,32.46851,-85.0009,4,NULL,36867,630972961,2
8400100443,SAFE HOUSE MUSEUM,3346242030,2401 DAVIS ST,32.69759,-87.60943,4,NULL,36744,753117341,4
8409503998,SAMFORD ART GALLERY,2057262011,800 LAKESHORE DR,33.46435,-86.7954,7,11,35204,630312914,2
8400100167,SAVING OUR FLYING HERITAGE THROUGH A FLYING MUSEUM,NULL,495BRENDA DR,34.7146,-86.74156,1,NULL,35758,272864769,2
8400100317,SCOTT AND ZELDA FITZGERALD MUSEUM,3342644222,919 FELDER AVENUE,32.37375,-86.31101,5,NULL,36104,630968480,1
8400100301,SCOTTSBORO JACKSON HERITAGE CENTER ASSOCIATION,NULL,PO BOX 53,34.67179,-86.03733,1,NULL,35768,630881568,3
8409504031,SEAY TWIN ART GALLERY,3348334498,1500 EAST FAIRVIEW AVENUE,32.35205,-86.28466,7,24,36104,630288841,4
8400100355,SEEMS SCHOOL,NULL,PO BOX 2152,30.76512,-88.26265,1,NULL,36575,631122414,2
8409504034,SELLA-GRANATA ART GALLERY,2053485967,WOODS HALL 7TH AVENUE,33.20939,-87.54843,7,5,35487,636001138,1
8400100132,SELMA DALLAS COUNTY HISTORIC PRESERVATION SOCIETY,3348746600,PO BOX 586,32.40623,-87.02243,4,NULL,36703,237269474,3
8400100384,SELMA TO MONTGOMERY NATIONAL HISTORIC TRAIL,3348771984,46 E PATTON AVE,32.33403,-86.30681,4,NULL,36104,631191545,1
8400100287,SELMA-DALLAS COUNTY MUSEUM OF HISTORY AND ARCHIVES,3348742197,PO BOX 1391,32.40885,-87.01422,1,NULL,36703,630841639,3
8400100265,SHELBY COUNTY HISTORICAL SOCIETY,NULL,PO BOX 457,33.20482,-86.60898,4,NULL,35051,630733157,4
8400100389,SKYLINE FARM HERITAGE ASSOCIATION,NULL,802 CO RD 25,34.67005,-86.22614,4,NULL,35768,631211203,4
8400100459,SLOSS FURNACES,NULL,20 32ND ST N,33.52109,-86.78855,1,NULL,35204,954895476,1
8400100011,SLOSS FURNACES NATIONAL HISTORIC LANDMARK,2053241911,20 32ND ST N,33.52109,-86.78855,4,NULL,35204,954895476,1
8409501176,SMITH HALL NATURAL HISTORY MUSEUM,NULL,739 UNIVERSITY BLVD,33.20939,-87.54843,9,5,35487,636001138,1
8400100370,SOUTH BALDWIN MUSEUM,NULL,PO BOX 546,30.40633,-87.68332,5,NULL,36536,631149586,3
8409500914,SOUTHERN ENVIRONMENTAL CENTER,2052264934,900 ARKADELPHIA ROAD,33.51394,-86.85365,3,14,35204,630708730,4
8409500915,SOUTHERN MUSEUM OF FLIGHT,2058338226,4343 73RD STREET NORTH,33.56294,-86.73852,3,NULL,35204,636051240,1
8400100156,SPRUCE PINE HISTORICAL SOCIETY,NULL,PO BOX 32,34.41417,-87.78503,4,NULL,35585,264262985,4
8400100135,ST CLAIR HISTORICAL SOCIETY,NULL,150 WARE AVENUE,33.68029,-86.39394,4,NULL,35120,237366837,4
8400100157,ST FLORIAN HISTORICAL PRESERVATION SOCIETY,NULL,57 SAINT FLORIAN RD,34.87336,-87.62379,4,NULL,35630,270148450,4
8409501810,STATE BLACK ARCHIVES RESEARCH CENTER & MUSEUM,2563725000,4900 MERIDIAN STREET NORTH,34.79291,-86.569,5,25,35762,636001109,4
8400100334,STATE OF ALABAMA ENGINEERING HALL OF FAME,NULL,PO BOX 870200,33.20964,-87.54712,3,NULL,35487,631065660,1
8400100181,STEPHEN JONAH KING COMMUNITY PRESERVATION GROUP,NULL,5168 SCARLET OAK CIRCLE,34.18203,-86.85799,4,NULL,35020,311623751,3
8409504115,STILLMAN ART GALLERY,2053494240,3601 STILLMAN BOULEVARD,33.19622,-87.56483,7,26,35487,630315935,1
8409504126,STUDENT CENTER ART GALLERY,2562338100,300 N BEATY STREET,34.80598,-86.96746,7,27,35612,630701340,4
8400100009,STURDIVANT HALL,3348725626,713 MABRY ST,32.40623,-87.02243,4,NULL,36703,630480594,4
8400100248,STURDIVANT HALL MUSEUM,3348725626,PO BOX 1205,32.41279,-87.02827,1,NULL,36703,630480594,3
8400100292,SUMTER COUNTY HISTORICAL & PRESERVATION SOCIETY,2056524015,PO BOX 213,32.56319,-88.13818,4,NULL,35470,630860482,4
8400100405,SYLACAUGA HISTORICAL PRESERVATION AND CONSERVATION,NULL,PO BOX 676,33.18505,-86.26153,4,NULL,35150,631274380,3
8400100440,TALLAPOOSSEE HISTORICAL SOCIETY,NULL,151 PEARSON CIR,32.81459,-85.73899,4,NULL,36853,731648133,4
8400100139,TALLEDEGA HISTORICAL ASSOCIATION,NULL,PO BOX 1042,33.43764,-86.10313,4,NULL,35161,237420825,3
8409501839,THOMAS E. MCMILLAN MUSEUM,2518091528,220 ALCO DRIVE BREWTON,31.12485,-87.07437,5,28,36427,630502384,4
8400100010,THREE NOTCH MUSEUM,3342220674,HISTORIC CENTRAL ST,31.30243,-86.48793,5,NULL,36420,630852981,3
8400100367,TONEY SCHOOL COMMUNITY MUSEUM,NULL,785 TONEY SCHOOL RD,34.89494,-86.77529,1,NULL,35773,631139064,4
8400100349,TRAIL OF LEGENDS ASSOCIATION,3345679090,PO BOX 626,32.599850000000004,-86.20616,1,NULL,36092,631110441,4
8400100441,TRIANA HISTORICAL SOCIETY,NULL,PO BOX 6021,34.66738,-86.75223,4,NULL,35816,731659739,1
8400100397,TROY-PIKE CULTURAL ARTS CENTER,3346702287,PO BOX 863,31.80862,-85.97027,7,NULL,36082,631248988,3
8400100423,TUSCALOOSA COUNTY PRESERVATION SOCIETY,2057586138,PO BOX 1665,33.20494,-87.56643,4,NULL,35487,636067908,1
8400100173,TUSCALOOSA GENEALOGICAL SOCIETY,NULL,PO BOX 020802,33.2029,-87.56242,4,NULL,35487,273511979,1
8400100184,TUSKEGEE AIRMEN NATIONAL HISTORIC SITE,2514948382,PO BOX 831199,32.42987,-85.68729,4,NULL,36083,320233016,3
8400100435,TUSKEGEE HUMAN & CIVIL RIGHTS,3347240800,PO BOX 830768,32.42215,-85.69088,5,NULL,36083,721378363,3
8400100136,TWICKENHAM HISTORIC PRESERVATION DISTRICT ASSOCIATION,2565367718,300 GATES AVE SE,34.729730000000004,-86.58248,4,NULL,35816,237380532,1
8400100002,U. S. ARMY AVIATION MUSEUM,3345982508,6000 NOVOSEL ST,31.34936,-85.71978,5,NULL,36362,630589651,4
8400100004,U.S. SPACE & ROCKET CENTER,2568373400,ONE TRANQUILITY BASE,34.7138,-86.62841,5,NULL,35816,631265839,2
8400100368,UNION PRESERVATION SOCIETY,NULL,200 STEWART ROAD,32.41973,-85.16797,4,NULL,36875,631142888,4
8409504239,UNIVERSITY CENTER GALLERY,NULL,301 SPARKMAN DR,34.74054,-86.62928,7,12,35816,630520830,1
8409502563,UNIVERSITY OF ALABAMA ARBORETUM,NULL,739 UNIVERSITY BLVD,33.20939,-87.54843,2,5,35487,636001138,4
8409501036,UNIVERSITY OF NORTH ALABAMA PLANETARIUM AND OBSERVATORY,2567654284,NORTH PINE STREET,34.8195,-87.66562,3,29,35630,636000893,4
8400100143,VALORS VOICE,2563022616,490 HARDING ROAD,34.36233,-86.43677,4,NULL,35016,261731941,3
8400100225,VESTAVIA HILLS HISTORICAL SOCIETY,2059780155,1221 MONTGOMERY HIGHWAY,33.4368,-86.78845,4,NULL,35216,570899716,2
8400100158,VINCENT HISTORICAL AND ENVIRONMENTAL SOCIETY,NULL,PO BOX 299,33.41177,-86.39859,4,NULL,35178,270546635,4
8400100386,VINTAGE RADIO MUSEUM,3349285124,10808 MCKENZIE RD,30.42221,-87.83571,5,NULL,36532,631206198,4
8409504300,VISUAL ARTS GALLERY,2059756436,1221 10TH AVENUE SOUTH,33.49099,-86.81976,7,6,35204,636005396,1
8400100154,VREDENBURGH HISTORICAL SOCIETY,NULL,176 STEWART CIRCLE,31.8139,-87.37517,4,NULL,36481,263935409,4
8400100394,VULCAN PARK AND MUSEUM,2059331409,1701 VALLEY VIEW DR,33.49037,-86.79686,2,NULL,35204,631233997,1
8409501059,W.A. GAYLE PLANETARIUM,NULL,UNIVERSITY AVENUE,31.79828,-85.95519,3,18,36082,636001102,4
8400100227,WALKER COUNTY GENEALOGICAL SOCIETY,NULL,PO BOX 3408,33.82961,-87.27733,4,NULL,35501,571141135,3
8400100359,WALLACE MUSEUM FOUNDATION,NULL,PO BOX 667,32.37375,-86.31101,5,NULL,36104,631125528,1
8400100149,WALNUT GALLERY,2563282836,534 A WALNUT STREET,34.01135,-86.01258,7,NULL,35904,263102385,1
8400100294,WASHINGTON COUNTY HISTORICAL SOCIETY & MUSEUM,3348472201,PO BOX 1166,31.47253,-88.29411,4,NULL,36518,630866891,4
8400100342,WASHINGTON COUNTY MUSEUM ASSOCIATION,2518472201,PO BOX 233,31.47253,-88.29411,5,NULL,36518,631087719,4
8409504318,WEBB HALL ART GALLERY,NULL,STATION ONE,32.56319,-88.13818,7,30,35470,636001100,4
8400100129,WEST JEFFERSON COUNTY HISTORICAL SOCIETY,3342065418,PO BOX 184,33.3455,-86.9849,4,NULL,35020,237201048,2
8400100297,WHITE HOUSE ASSOCIATION,3342421861,PO BOX 1861,32.37645,-86.29303,1,NULL,36104,630870182,1
8400100266,WILCOX HISTORICAL SOCIETY,3346829825,PO BOX 464,31.99763,-87.3061,4,NULL,36726,630737652,4
8400100313,WIREGRASS MUSEUM OF ART,3347943871,PO BOX 1624,31.22382,-85.38911,7,NULL,36303,630958800,1
8400100122,WOMENS GUILD INC OF THE HUNTSVILLE ART LEAGUE AND MUSEUM,NULL,307 CLINTON AVENUE,34.72664,-86.57223,7,NULL,35816,237041470,1
8400500304,99TH BOMBARDMENT GROUP HISTORICAL SOCIETY,NULL,20 FLATHEAD DRIVE,36.3252,-91.52692,4,NULL,72529,850286731,3
8400500106,AFRICAN AMERICAN HERITAGE ASSOCIATION,NULL,2240 N EAST OAKS DR,36.01429,-94.04572,4,NULL,72703,331210121,4
8400500237,ALTUS HISTORICAL SOCIETY,5804771950,PO BOX 197,35.44574,-93.74349,4,NULL,72821,710768382,4
8400500053,AMERICAN MUSIC MUSEUM,NULL,105 CHERRY ST,34.52253,-90.58635,5,NULL,35080,200034009,3
8400500128,ARKANSAS AIR MUSEUM,4795214947,4290 S SCHOOL AVE,36.01731,-94.17278,1,NULL,72703,581705722,4
8400500083,ARKANSAS ARTS CENTER,5013724000,501 E 9TH ST,34.74343,-92.2651,7,NULL,72202,237337495,1
8400500177,ARKANSAS AVIATION HISTORICAL SOCIETY,5013205700,PO BOX 99,34.74761,-92.2668,4,NULL,72106,710528626,1
8400500233,ARKANSAS COUNTRY DOCTOR MUSEUM,4798244307,PO BOX 1004,35.95004,-94.42464,1,NULL,72744,710750791,4
8400500145,ARKANSAS FALLEN FIREFIGHTERS MEMORIAL,5017862466,8619 CHICOT RD,34.7449,-92.29327,4,NULL,72202,621692456,1
8400500110,ARKANSAS FORESTRY MUSEUM AND EDUCATIONAL CENTER,5016826584,135 GATESWAY DR,33.66046,-91.81058,5,NULL,71655,421638281,4
8400500205,ARKANSAS GOVERNORS MANSION,5013249805,425 W CAPITOL AVE STE 3300,34.73098,-92.2763,4,NULL,72202,710594754,1
8400500235,ARKANSAS HISTORIC WINE MUSEUM,4799633990,101 N CARBON CITY RD,35.29842,-93.79172,4,NULL,72855,710765416,4
8400500085,ARKANSAS HISTORICAL ASSOCIATION,4795755884,416 OLD MAINUNIV OF ARKANSAS,36.05216,-94.14502,4,NULL,72703,237401813,1
8400500114,ARKANSAS INLAND MARITIME MUSEUM ASSOCIATION,5013718320,300 MAIN ST,34.75624,-92.26765,5,NULL,72114,431987358,1
8400500227,ARKANSAS MUSEUM OF AVIATION,NULL,1208 NORTH POINT,34.81958,-92.25256,5,NULL,72118,710725667,1
8400500178,ARKANSAS MUSEUM OF NATURAL RESOURCES,8707252877,PO BOX 556,33.33022,-92.70309,5,NULL,71762,710528866,4
8400500047,ARKANSAS NATURAL RESOURCES MUSEUM,8707252877,3853 SMACKOVER HIGHWAY,33.35597,-92.73311,5,NULL,71762,710528866,4
8400500062,ARKANSAS NAUTICAL MUSEUM,5013718320,PO BOX 1214,36.33632,-94.12567,5,NULL,72757,201835294,1
8400500319,ARKANSAS POST NATIONAL MEMORIAL,8705482207,1741 OLD POST ROAD,33.88555,-91.48912,4,NULL,72055,462055113,3
8400500079,ARKANSAS SPORTS HALL OF FAME,5016634328,3 VERIZON ARENA WAY,34.75348,-92.26518,5,NULL,72114,237173855,1
8409501324,ARKANSAS STATE UNIVERSITY MUSEUM,8709722074,320 UNIVERSITY LOOP CIRCLE,35.82917,-90.72578,5,31,72401,716000556,4
8400500273,ARKANSAS SUPREME COURT HISTORICAL SOCIETY,5016826879,JUSTICE BLDG 625 MARSHALL STREET,34.7455,-92.27518,4,NULL,72202,710841016,1
8409501325,ARKANSAS TECH UNIVERSITY MUSEUM,4799680237,1605 NORTH COLISEUM DRIVE,35.29308,-93.13613,5,32,72801,716014834,3
8400500045,ARKANSAS TERRITORIAL RESTORATION,NULL,200 EAST THIRD STREET,34.74606,-92.26945,4,NULL,72202,710444606,1
8400500287,ART CENTER OF GRAND PRAIRIE,8706731781,PO BOX 65,34.4923,-91.55385,7,NULL,72160,716065972,3
8409502735,ART GALLERY,4792388561,2000 WEST UNIVERSITY STREET,36.18922,-94.56199,7,33,72761,710239576,3
8409502755,ART GALLERY,8702354000,100 EAST UNIVERSITY STREET,33.2889,-93.23695,7,34,71753,716007749,4
8400500210,ARTS AND SCIENCE CENTER FOR SOUTHEAST ARKANSAS,8705363375,701 S MAIN STREET,34.22274,-92.00333,3,NULL,71601,710636240,1
8400500154,ARTS CENTER OF THE OZARKS,4797515441,PO BOX 725,36.18414,-94.13233,7,NULL,72765,710398247,1
8409502799,ARTS OF UAMS GALLERY,5012961100,4301 W MARKHAM ST,36.04255,-94.16749,7,35,72202,716056774,1
8400500172,ASHLEY COUNTY HISTORICAL SOCIETY,8708532244,PO BOX 27,33.22708,-91.79489,4,NULL,71646,710518015,3
8400500246,AVIATION CADET MUSEUM,4792535008,542 COUNTY ROAD 2073,36.43483,-93.69864,3,NULL,72632,710789481,4
8400500266,BASS FISHING HALL OF FAME,8886902277,PO BOX 2654,34.49155,-93.09317,5,NULL,71914,710827998,1
8400500143,BASS REEVES LEGACY INITIATIVE,4797884211,4300 ROGERS AVE SUITE 20 208,35.3689,-94.38493,4,NULL,72903,611535515,1
8400500125,BATES SCHOOLHOUSE COMMUNITY CENTER,NULL,1516 LOOKOUT LANE,34.90993,-94.35752,1,NULL,72958,550866853,4
8409502826,BAUM GALLERY,5014505793,201 DONAGHEY AVE,35.07833,-92.45431,7,36,72035,716001828,4
8400500042,BAUXITE HISTORICAL ASSN MUSEUM,5015579858,6707 BENTON RD,34.52672,-92.46903,4,NULL,72011,710636998,4
8400500174,BAXTER COUNTY HISTORICAL SOCIETY,8704252551,PO BOX 2125,36.33547,-92.38287,4,NULL,72654,710521264,3
8400500175,BELLA VISTA HISTORICAL SOCIETY,NULL,1885 BELLA VISTA WAY,36.46091,-94.24399,4,NULL,72714,710525106,2
8400500240,BENTON ATHLETIC MEMORIAL MUSEUM,5017780495,1106 MILITARY RD,34.57446,-92.58014,5,NULL,72015,710773500,2
8400500180,BENTON COUNTY HISTORICAL SOCIETY,4792733561,PO BOX 1034,36.37313,-94.21178,4,NULL,72712,710531085,1
8400500060,BENTONVILLE HISTORICAL MUSEUM,NULL,1307 NW K STREET,36.38772,-94.22469,4,NULL,72712,201741950,1
8409502855,BLACK BOX: STUDENT GALLERY,5014503113,201 DONAGHEY AVE,35.07833,-92.45431,7,36,72035,716001828,1
8400500041,BOONE COUNTY HERITAGE MUSEUM,8707413312,110 S CHERRY ST,36.22893,-93.1124,5,NULL,72601,710518731,3
8400500173,BOONE COUNTY HISTORICAL & RAILROAD SOCIETY INC 211 WEST RUSH,8707413312,PO BOX 1094,36.22893,-93.1124,1,NULL,72601,710518731,3
8400500280,BOONEVILLE HISTORICAL PRESERVATION SOCIETY,4796752666,PO BOX 1402,35.13996,-93.91851,4,NULL,72927,711023145,3
8409502875,BRADBURY GALLERY,8709722567,201 OLYMPIC DRIVE,35.82917,-90.72578,7,31,72401,716000556,4
8400500214,BRADLEY COUNTY HISTORICAL MUSEUM,8702265457,311 NORTH MYRTLE STREET,33.61416,-92.06614,4,NULL,71671,710662391,3
8400500156,BUFFALO ISLAND MUSEUM,8704862012,HIGHWAY 18,35.89942,-90.33814,5,NULL,72447,710408489,4
8400500320,BUFFALO NATIONAL RIVER,8703652792,402 NORTH WALNUT SUITE 136,36.24987,-93.1307,2,NULL,72601,261467465,4
8400500267,BULL SHOALS HISTORICAL SOCIETY,NULL,PO BOX 5,36.37928,-92.58705,4,NULL,72619,710828053,4
8400500094,CALICO ROCK MUSEUM FOUNDATION,8702976100,104 MAIN ST,36.11614,-92.14076,1,NULL,72519,262632165,4
8400500051,CANE HILL RESTORATION ASSOCIATION,NULL,18781 MOCKINGBIRD LN,35.86701,-94.41309,4,NULL,72717,113820952,4
8400500161,CARROLL COUNTY HISTORICAL SOCIETY,8706543948,PO BOX 249,36.3663,-93.56431,4,NULL,72616,710484540,3
8400500257,CENTRAL ARKANSAS ANTIQUE MACHINERY AND HISTORICAL SOCIETY,NULL,PO BOX 579,34.30486,-92.38618,4,NULL,72150,710813074,4
8400500146,CENTRAL DELTA HISTORICAL SOCIETY,8705892124,100 W CYPRESS ST,34.88703,-91.18533,4,NULL,72021,621699437,3
8400500247,CENTRAL HIGH MUSEUM,5013741957,2120 DAISY BATES DRIVE,34.73877,-92.29731,1,NULL,72202,710791277,1
8400500124,CHEROKEE VILLAGE HISTORICAL SOCIETY,NULL,10 AKOKISA DR,36.31109,-91.53129,4,NULL,72529,542102281,3
8400500289,CHIDESTER MUSEUM AND HISTORIAL ASSOCIATION,NULL,132 WILLOW STREET / PO BOX 351,33.66454,-93.02501,1,NULL,71726,721616748,4
8400500223,CHILDREN'S MUSEUM OF ARKANSAS,5013967050,500 PRESIDENT CLLINTON AVE,34.70142,-92.16606,8,NULL,72202,710714026,4
8400500070,CHILDREN'S MUSEUM OF NORTHWEST ARKANSAS,4796969280,902 A S WALTON BLVD SUITE 1,36.37252,-94.20959,8,NULL,72712,204718511,1
8400500171,CLEBURNE COUNTY HISTORICAL SOCIETY INC TERM,5013625225,PO BOX 794,35.4926,-92.02771,4,NULL,72543,710511989,3
8400500087,CLEVELAND COUNTY HISTORICAL SOCIETY,NULL,PO BOX 192,33.94306,-92.10224,4,NULL,71665,237411022,4
8400500092,CLINTON HOUSE MUSEUM,4794440066,930 W CLINTON DR,36.06396,-94.17116,1,NULL,72703,261434061,1
8400500142,CLOVER BEND HISTORICAL AND PRESERVATION DISTRICT,NULL,4679 HIGHWAY 63,36.2101,-91.20042,4,NULL,72415,582216039,4
8400500297,CONWAY COUNTY GENEALOGICAL ASSOCIATION,5013548578,PO BOX 865,35.15225,-92.74389,4,NULL,72110,800057490,3
8400500204,COTTON BELT RAIL HISTORICAL SOCIETY,8705358819,PO BOX 2044,34.22917,-91.985830000000007,4,NULL,71601,710593054,1
8400500305,COVENANT FARM,NULL,906 W LOUISIANA,35.07389,-91.89314,6,NULL,72012,861158055,3
8400500123,CRAWFORD COUNTY GENEALOGICAL SOCIETY,4796325549,PO BOX 276,35.47836,-94.22203,4,NULL,72921,522456816,2
8400500089,CRAWFORD COUNTY HISTORICAL SOCIETY,4796325549,PO BOX 1317,35.50037,-94.20754,4,NULL,72957,237425902,4
8400500086,CROSS COUNTY HISTORICAL SOCIETY,8702393815,PO BOX 943,35.22347,-90.78564,4,NULL,72396,237402592,3
8400500252,CROSSETT CULTURAL AND HISTORICAL SOCIETY,NULL,601 EAST THIRD AVENUE,33.13207,-91.97297,4,NULL,71635,710802177,3
8400500136,CROSSETT ZOO,8703647732,PO BOX 560,33.13675,-91.96326,6,NULL,71635,581969892,3
8400500059,CRYSTAL BRIDGES MUSEUM OF AMERICAN ART,4794185700,600 MUSEUM WAY,36.38053,-94.19285,7,NULL,72712,201359710,1
8400500296,DAISY AIRGUN MUSEUM,NULL,202 W WALNUT ST,36.33302,-94.11757,3,NULL,72757,770618199,1
8400500199,DALLAS COUNTY MUSEUM,8703525262,PO BOX 703,33.81207,-92.41194,1,NULL,71742,710584837,3
8400500102,DELTA GATEWAY MUSEUM,8708242346,210 WEST MAIN,35.92751,-89.90449,1,NULL,72315,320266934,3
8400500274,DEPARTMENT OF ARKANSAS HERITAGE,5013249150,300 WEST MARKHAM STREET,34.74622,-92.27304,1,NULL,72202,710847443,1
8400500061,DERMOTT HISTORICAL MUSEUM,8705383496,PO BOX 326,33.52779,-91.4346,4,NULL,71638,201746268,3
8400500082,DESHA COUNTY HISTORICAL SOCIETY,NULL,209 W OAK ST,33.62835,-91.39803,4,NULL,71654,237305443,3
8400500162,DESHA COUNTY MUSEUM SOCIETY,8703824222,PO BOX 141,33.89026,-91.49718,5,NULL,71639,710484798,3
8400500158,DREW COUNTY HISTORICAL MUSEUM,8703677446,404 S MAIN ST,33.6214,-91.79169,4,NULL,71655,710437939,3
8400500275,EDDIE MAE HERRON CENTER,8708924433,1613 W MARR,36.25823,-90.97967,1,NULL,72455,710851340,3
8400500035,EMOBA MUSEUM OF BLACK ARKANSANS,5013726093,1224 LOUISIANA ST,34.73738,-92.27378,5,NULL,72202,710734673,1
8400500228,ERNIE'S MUSEUM ON BLACK ARKANSANS HALL OF FAME AND MUSIC THEATER,5013726093,PO BOX 46754,34.73738,-92.27378,5,NULL,72202,710734673,1
8400500167,EUREKA SPRINGS HISTORICAL MUSEUM,4792539417,95 S MAIN ST,36.39972,-93.7407,4,NULL,72632,710491031,4
8400500139,EVANS MUSEUM,4799633987,6335 N HWY 109,35.2173,-93.76739,5,NULL,72943,582004726,4
8400500200,FAIRFIELD BAY LOG CABIN MUSEUM,NULL,PO BOX 1549,35.59905,-92.27042,5,NULL,72088,710584915,4
8400500310,FAULKNER COUNTY MUSEUM,5013295918,PO BOX 2442,35.08869,-92.44256,5,NULL,72035,943427145,1
8409503160,FINE ART GALLERIES,NULL,2801 S UNIVERSITY AVE,34.7269,-92.3418,7,37,72202,710236904,4
8409503161,FINE ART GALLERIES - GALLERY I,5015693182,2801 S UNIVERSITY AVENUE,34.7269,-92.3418,7,37,72202,710236904,1
8409503162,FINE ART GALLERIES - GALLERY II,5015693182,2801 S UNIVERSITY AVENUE,34.7269,-92.3418,7,37,72202,710236904,1
8409503163,FINE ART GALLERIES - GALLERY III,5015693182,2801 S UNIVERSITY AVENUE,34.7269,-92.3418,7,37,72202,710236904,1
8409503168,FINE ARTS CENTER GALLERY,NULL,PO BOX 600,35.84933,-90.67934,7,31,72401,716000556,4
8400500067,FIVE RIVERS HISTORIC PRESERVATION,NULL,202 W BROADWAY,36.26456,-90.96728,4,NULL,72455,203052168,3
8400500191,FORESTER HISTORICAL SOCIETY,NULL,655 CHURCHILL ST,34.88873,-94.10236,4,NULL,72958,710568299,3
8400500269,FORT SMITH AIR MUSEUM,4797851839,3 GLEN HAVEN DRIVE,35.34538,-94.36021,5,NULL,72903,710832287,1
8400500168,FORT SMITH HISTORICAL SOCIETY,NULL,PO BOX 3676,35.38415,-94.37616,4,NULL,72903,710497745,1
8400500284,FORT SMITH MUSEUM OF HISTORY,4797837841,320 ROGERS AVE,35.38803,-94.42872,1,NULL,72903,716055767,1
8400500098,FOURCHE VALLEY CULTURAL PRESERVATION AND RESTORATION,NULL,10678 S AND G CIRCLE LANE,34.86152,-93.78302,4,NULL,72841,272140710,4
8409503243,GALLERY,5013296811,1600 WASHINGTON AVE,35.1009,-92.44424,7,38,72035,710236897,1
8400500066,GALLERY MINT MUSEUM,4792535055,PO BOX 706,36.3914,-93.73889,7,NULL,72632,202822907,4
8400500182,GANN MUSEUM OF SALINE COUNTY,NULL,PO BOX 1923,34.57625,-92.57741,5,NULL,72015,710537897,2
8400500286,GARLAND COUNTY HISTORICAL SOCIETY,5013212159,PO BOX 21335,34.5078,-93.05779,4,NULL,71914,716061440,1
8409502159,GARVAN WOODLAND GARDENS,5012629300,550 ARKRIDGE ROAD,34.43171,-93.03747,2,37,71914,710236904,4
8400500144,GEORGE D HAY COUNTRY MUSIC HALL OF FAME & MUSEUM,4172647015,PO BOX 772,36.46293,-91.54586,5,NULL,72554,621680555,4
8400500118,GLADE COMMUNITY HISTORICAL SOCIETY,NULL,20916 SLATE GAP RD E,36.43338,-93.96346,4,NULL,72732,453908996,4
8400500206,GOOD EARTH ASSOCIATION,8708929545,202 E CHURCH ST,36.26435,-90.9683,4,NULL,72455,710595355,3
8400500186,GRAND PRAIRIE HISTORICAL SOCIETY,NULL,POST OFFICE BOX 355,34.11019,-91.36915,4,NULL,72055,710542755,4
8400500140,GRANT COUNTY MUSEUM FOUNDATION,8709424496,PO BOX 309,34.29827,-92.40213,5,NULL,72150,582040842,3
8400500056,GRAPEVINE HISTORICAL SOCIETY,NULL,11412 HURON LN,34.76672,-92.40065,4,NULL,72202,200875546,1
8400500120,GREATER EUREKA SPRINGS VISITOR EDUCATION CENTER,8006387352,516 VILLAGE CIRCLE,36.41029,-93.74534,4,NULL,72632,454685152,4
8400500238,GREENE COUNTY COURTHOUSE PRESERVATION SOCIETY,NULL,750 GREENE ROAD 131,36.05613,-90.48946,4,NULL,72450,710770513,3
8400500212,GREENE COUNTY HISTORICAL AND GENEALOGICAL SOCIETY,8702408944,PO BOX 121,36.05613,-90.48757,4,NULL,72450,710642613,3
8400500058,GREENE COUNTY MUSEUM,8702152407,PO BOX 991,36.05631,-90.4874,5,NULL,72450,201076214,3
8400500127,GURDON HISTORICAL PRESERVATION ASSOCIATION,NULL,PO BOX 193,33.92408,-93.14267,4,NULL,71743,581661483,4
8409503359,HAMMONS GALLERY,8702455129,410 OUACHITA STREET,34.12446,-93.05134,7,39,71923,710239383,4
8409400253,HELENA MUSEUM OF PHILLIPS COUNTY,NULL,623 PECAN,34.52833,-90.5886,5,NULL,35080,463581169,4
8409501511,HEMINGWAY-PFEIFFER MUSEUM AND EDUCATIONAL CENTER,8705983487,1021 WEST CHERRY STREET,36.38536,-90.20024,5,31,72454,716000556,4
8400500185,HEMPSTEAD COUNTY HISTORICAL SOCIETY,NULL,PO BOX 1257,33.66609,-93.58733,4,NULL,99605,710542206,3
8409501512,HENDERSON STATE UNIVERSITY MUSEUM,8702305000,1100 HENDERSON STREET,34.12561,-93.05976,5,40,71923,716000286,4
8400500255,HERITAGE HOUSE MUSEUM OF MONTGOMERY COUNTY,8708674422,PO BOX 1362,34.55149,-93.58108,1,NULL,71957,710809313,4
8400500159,HISTORIC ARKANSAS MUSEUM,5013249351,200 E 3RD ST,34.74606,-92.26945,4,NULL,72202,710444606,1
8400500193,HISTORIC PRESERVATION ALLIANCE OF ARKANSAS,5013724757,PO BOX 305,34.75717,-92.26893,4,NULL,72202,710569359,1
8400500303,HISTORIC SPRINGDALE,NULL,107 W EMMA AVENUE,36.18498,-94.13077,4,NULL,72765,800576414,1
8400500196,HOO-HOO MUSEUM,8703532661,PO BOX 118,33.92408,-93.14267,5,NULL,71743,710580290,4
8400500295,HOSTELLING ARKANSAS,NULL,400 SHALL ST,34.74292,-92.25736,5,NULL,72202,770610164,1
8400500209,HOT SPRING COUNTY ARKANSAS HISTORICAL SOCIETY,5013371755,PO BOX 674,34.37237,-92.81277,4,NULL,72104,710628036,3
8400500188,HOT SPRING COUNTY MUSEUM COMMISSION,NULL,106 COUNTRY OAKS DRIVE,34.32986,-92.80458,5,NULL,72104,710548451,3
8400500157,HOWARD COUNTY CHILDREN'S CENTER,8708451211,1577 HIGHWAY 371 W,33.95166,-93.86406,8,NULL,71852,710427299,3
8400500108,INTERNATIONAL HOO-HOO HEADQUARTERS AND MUSEUM,8703534997,207 E MAIN ST,33.91867,-93.15087,4,NULL,71743,390839280,4
8400500249,IZARD COUNTY HISTORICAL AND GENEALOGICAL SOCIETY,NULL,PO BOX 877,35.91806,-92.06308,4,NULL,72556,710799530,4
8400500285,JACKSON COUNTY HISTORICAL SOCIETY,8164611897,PO BOX 430,35.60852,-91.25215,4,NULL,72112,716057799,3
8400500024,JACKSONVILLE MUSEUM OF MILITARY HISTORY,5012411943,100 N HOSPITAL CIR,34.86416,-92.12248,5,NULL,36265,581978634,2
8400500054,JAMES K BARNES MUSEUM AND TOURIST CENTER,4797821288,PO BOX 3981,35.3796,-94.38085,5,NULL,72903,200698437,1
8400500164,JOHNSON COUNTY HISTORICAL SOCIETY,4797543334,131 W MAIN ST,35.47108,-93.46233,4,NULL,72830,710485874,3
8409501564,JONES TRUST CENTER,4797568090,922 E EMMA AVE,36.18468,-94.11903,5,41,72712,710068554,1
8409503547,KRESGE GALLERY,8703077000,2300 HIGHLAND ROAD,35.77896,-91.62714,7,42,72501,710246213,3
8400500262,L C & DAISY BATES MUSEUM FOUNDATION,5013767399,PO BOX 26108,34.7217,-92.28739,5,NULL,72202,710821741,1
8409501273,LAKEPORT PLANTATION HOUSE,8702656031,601 HWY 142,33.23193,-91.14098,4,31,72401,716000556,4
8400500165,LITTLE RIVER COUNTY HISTORICAL SOCIETY,8708987202,310 NORTH 2ND STREET,33.67456,-94.13102,4,NULL,71822,710485901,3
8400500131,LITTLE ROCK ZOOLOGICAL GARDENS,5016662406,1 JONESBORO DR,34.74694,-92.32913,6,NULL,72202,581837949,1
8400500122,LOGAN COUNTY MUSEUM,NULL,204 NORTH VINE ST,35.29354,-93.7316,5,NULL,72855,521321153,3
8400500184,LONOKE COUNTY HISTORICAL SOCIETY,5016766750,BOX 193,34.78382,-91.90148,4,NULL,72086,710541634,3
8400500254,LONOKE COUNTY MUSEUM,5016766750,PO873,34.78382,-91.90143,1,NULL,72086,710808942,3
8400500268,MACARTHUR MUSEUM OF ARKANSAS MILITARY HISTORY,5013764602,503 E 9TH ST,34.73949,-92.26709,5,NULL,72202,710828320,1
8409503632,MADDOX GALLERY,8708866741,60 W FULBRIGHT AVENUE,36.0699,-90.77845,7,43,72476,710240677,4
8400500203,MADISON COUNTY GENEALOGICAL AND HISTORICAL SOCIETY,4797386408,PO BOX 427,36.08403,-93.74214,4,NULL,35816,710592588,4
8400500050,MANESS HISTORICAL SOCIETY,NULL,1302 FORT STREET,35.33292,-94.31039,4,NULL,72923,113740409,2
8400500271,MARIANNA HISTORIC TRUST,NULL,3307 LEE ROAD 225,34.73565,-90.69034,4,NULL,72360,710838078,4
8400500192,MARIANNA LEE COUNTY MUSEUM,8702952469,67 WEST MAIN,34.77344,-90.75762,5,NULL,72360,710568400,3
8400500055,MARION COUNTY ARKANSAS HERITAGE SOCIETY,8704452667,PO BOX 761,36.24265,-92.69523,4,NULL,72687,200872366,4
8409503692,MEILEY-SWALLOW HALL GALLERY,NULL,1515 PIONEER DR,35.90746,-92.60405,7,44,72601,710451862,4
8400500197,MELTING POT GENEALOGICAL SOCIETY,5016240229,PO BOX 936,34.5038,-93.06074,4,NULL,71914,710583755,1
8400500288,MENA AREA HISTORIC MUSEUM,NULL,500 MENA ST,34.58521,-94.237,5,NULL,71953,721259010,3
8400500020,MID-AMERICA MUSEUM,NULL,400 MID-AMERICA BLVD,34.51894,-93.11695,9,NULL,71914,202129318,4
8400500219,MILLER COUNTY HISTORICAL SOCIETY,NULL,PO BOX 343,33.30256,-93.87752,4,NULL,71837,710697102,4
8400500225,MISSISSIPPI COUNTY HISTORICAL AND GENEALOGICAL SOCIETY,8702817583,PO BOX 483,35.70268,-89.96956,4,NULL,72370,710720982,3
8400500016,MOSAIC TEMPLARS CULTURAL CENTER,5016833593,501 W 9TH ST,34.74343,-92.2651,1,NULL,72202,800460029,1
8400500112,MT SHERMAN HISTORICAL COMMUNITY CENTER,NULL,HC 70 BOX 207,36.00777,-93.18841,4,NULL,35501,421740773,4
8400500017,MUSEUM AND STUDY CENTER MATILDA AND KARL PFEIFFER,8705983228,1071 HERITAGE PARK RD,36.38575,-90.20107,5,NULL,72454,300132719,3
8400500194,MUSEUM LEPANTO USA,8704756166,PO BOX 404,35.61255,-90.33062,5,NULL,72354,710569737,4
8400500160,MUSEUM OF AUTOMOBILES,5017275427,8 JONES LN,35.13259,-92.89097,5,NULL,72110,710477370,4
8400500301,MUSEUM OF CHICOT COUNTY ARKANSAS,8702652868,PO BOX 762,33.32333,-91.28455,5,NULL,71653,800321818,3
8400500104,MUSEUM OF CONTEMPORARY ART OF HOT SPRINGS,NULL,425 CENTRAL AVE,36.05613,-90.50345,7,NULL,71914,331057185,3
8400500153,MUSEUM OF DISCOVERY,5013967050,500 PRES CLINTON AVE STE 150,34.70142,-92.16606,5,NULL,72202,710391707,4
8409400408,MUSEUM OF MILITARY HISTORY,NULL,127 E 3RD ST,35.27609,-93.13238,5,NULL,72801,461148314,3
8400500074,MUSEUM OF NATIVE AMERICAN HISTORY,NULL,202 SW 0 ST,36.36119,-94.22155,1,NULL,72712,208270698,1
8400500293,MUSEUM OF ROCK,NULL,200 LAKELAND DRIVE APT H-2,34.44759,-93.06817,5,NULL,71914,770340983,2
8400500080,MUSEUM OF THE ARKANSAS GRAND PRAIRIE,8706737001,921 E 4TH ST,34.49924,-91.54159,1,NULL,72160,237209818,3
8400500300,MUSEUM OF THE HARDWOOD TREE,4797824220,1708 RANNOCH TRCE,35.28527,-94.41583,5,NULL,72903,800284082,1
8400500119,MUSEUM OF VETERANS AND MILITARY HISTORY,NULL,PO BOX 668,35.08855,-92.21089,5,NULL,72173,454292873,4
8400500138,MUSIC FORT SMITH,NULL,323 NORTH 5TH STREET,35.39039,-94.42385,4,NULL,72903,581995650,1
8400500179,NEVADA COUNTY DEPOT AND MUSEUM,8708875821,PO BOX 592,33.79965,-93.38431,5,NULL,71857,710530855,3
8400500229,NEW ROCKY COMFORT MUSEUM,8705427887,PO BOX 268,33.72916,-94.39718,5,NULL,71836,710736118,4
8400500189,NEWTON COUNTY HISTORICAL SOCIETY,NULL,PO BOX 360,36.00821,-93.18699,4,NULL,35501,710558430,4
8409503789,NORMAN HALL GALLERY,4799680237,1605 NORTH COLISEUM DRIVE,35.29308,-93.13613,7,32,72801,716014834,4
8400500291,NORMAN HISTORIC PRESERVATION PROGRAM,NULL,PO BOX 226,34.47009,-93.70638,4,NULL,71960,731620964,4
8400500148,NORTHEAST ARKANSAS LIVING HISTORIANS,NULL,5000 W KINGSHIGHWAY,36.0624,-90.55298,4,NULL,72450,621714015,3
8400500250,NORTHWEST ARKANSAS GENEALOGICAL SOCIETY,4792716820,405 S MAIN ST,36.36756,-94.20831,4,NULL,72714,710800735,1
8400500241,NORTHWEST ARKANSAS HISTORICAL EDUCATION ASSOCIATION,NULL,1801 BETH DR,36.31571,-94.14786,4,NULL,72757,710779754,1
8400500063,NORTHWEST ARKANSAS MUSEUM FOUNDATION,4797900526,PO BOX 8433,36.0924,-94.11055,5,NULL,72703,202110621,1
8409400527,OLD FORT MUSEUM,NULL,320 ROGERS AVE,35.38803,-94.42872,5,NULL,72903,581807199,1
8400500234,OLD INDEPENDENCE REGIONAL MUSEUM,8707932121,380 S 9TH ST,35.77291,-91.64454,1,NULL,72501,710752573,3
8400500292,OLD PATHS HISTORICAL LIBRARY,NULL,3207 NW AVIGNON WAY,36.40645,-94.21891,4,NULL,72712,742914079,1
8400500009,OLD STATE HOUSE MUSEUM,5013249685,300 WEST MARKHAM,34.7702,-92.33373,5,NULL,72202,710546082,1
8400500109,OLD STATES HOUSE MUSEUM,5013249685,300 W MARKHAM ST,34.74858,-92.27331,1,NULL,72202,412137453,1
8400500208,OSCEOLA HISTORIC RESTORATION PRESERVATION,NULL,106 WEST HALE STREET,35.70293,-89.96845,4,NULL,72370,710618479,3
8400500220,OZARK AREA MUSEUM,4796675015,103 E RIVER ST,35.48503,-93.82546,5,NULL,36360,710697509,3
8400500308,OZARK ARTS SCIENCES CONSERVATORY,5018493321,PO BOX 83,35.12154,-92.06601,2,NULL,72045,920156438,4
8400500133,OZARK HERITAGE ART CENTER & MUSEUM,8704482557,PO BOX 217,35.83104,-92.55868,7,NULL,72645,581940102,4
8400500211,OZARK MILITARY MUSEUM,4795871941,4360 S SCHOOL AVE,36.01667,-94.17282,1,NULL,72703,710637542,4
8400500071,PARIS COALMINERS MEMORIAL AND MINI MINE,4799632244,804 SOUTH ELM STREET,35.28631,-93.73008,4,NULL,72855,204833013,3
8400500111,PARK CENTRAL LITTLE ROCK,NULL,PO BOX 567,34.73703,-92.29739,4,NULL,72202,421701095,1
8400500095,PEA RIDGE HISTORICAL SOCIETY,NULL,344 HALLECK LN,36.43909,-94.1258,4,NULL,72751,263468948,2
8400500242,PEA RIDGE NATIONAL MILITARY PARK,NULL,PO BOX 925,36.44272,-94.02593,4,NULL,72751,710781904,4
8400500222,PEEL HOUSE FOUNDATION,4792739664,400 S WALTON BLVD,36.37578,-94.20841,4,NULL,72712,710713232,1
8400500065,PERRY COUNTY HISTORICAL MUSEUM,5018891571,PO BOX 1128,34.97681,-92.82581,1,NULL,72126,202373844,4
8400500187,PINE BLUFF JEFFERSON COUNTY HISTORICAL MUSEUM,NULL,201 E 4TH AVE,34.22618,-92.00239,4,NULL,71601,710546270,1
8400500152,PIONEER WASHINGTON RESTORATION FOUNDATION,8709832828,PO BOX 127,33.79774,-93.63071,4,NULL,71862,710350045,4
8409500820,POMEROY PLANETARIUM,8704601026,346 UNIVERSITY DRIVE,33.63071,-91.79108,3,45,71655,716008509,4
8400500076,POTTS INN MUSEUM,4799688369,889 EAST ASH STREET,35.24975,-93.04777,5,NULL,72858,237067470,3
8400500230,PRAIRIE GROVE BATTLEFIELD PARK,4798462990,PO BOX 7,35.98262,-94.30999,4,NULL,72753,710737922,3
8400500011,PROFESSIONAL BASS FISHING,5016245599,928 AIRPORT RD,34.49155,-93.09317,5,NULL,71913,710827998,1
8400500088,PULASKI COUNTY HISTORICAL SOCIETY,NULL,PO BOX 251903,34.7576,-92.32424,4,NULL,72202,237420722,1
8400500075,QUAPAW QUARTER ASSOCIATION OF VILLA MARRE,5013710075,PO BOX 165023,34.74294,-92.26424,4,NULL,72202,237061144,1
8400500299,RECTOR HIGH SCHOOL SPORTS HALL OF FAME,NULL,1703 LOBERG LN,35.82443,-90.73641,5,NULL,72401,800216041,1
8400500256,REEDS BRIDGE BATTLEFIELD PRESERVATION SOCIETY,5017661527,511 N 1ST ST STE 8,34.86646,-92.1222,4,NULL,36265,710811879,2
8409500832,REYNOLDS PLANETARIUM,8702305000,1100 HENDERSON STREET,34.12561,-93.05976,3,40,71923,716000286,4
8400500097,RIVER VALLEY BOTANICAL GARDENS,NULL,4300 ROGERS AVE SUITE 26,35.3689,-94.38493,2,NULL,72903,264380880,1
8400500272,RIVER VALLEY MUSEUM OF VAN BUREN,8003325889,PO BOX 6572,35.43734,-94.35076,1,NULL,72957,710840963,2
8400500236,ROCKY BRANCH SCHOOL PRESERVATION ASSOCIATES,NULL,21063 LOW GAP LANE,36.33108,-93.91726,1,NULL,72757,710766821,4
8400500170,ROGERS HISTORICAL MUSEUM,4796211154,322 SOUTH SECOND STREET,36.33027,-94.11814,4,NULL,72757,710502870,1
8400500129,SALINE COUNTY HISTORY HERITAGE SOCIETY,5017783770,PO BOX 1712,34.57625,-92.57741,4,NULL,72015,581737653,2
8409504020,SCHOENHERR ART GALLERY,NULL,1515 PIONEER DR,35.90746,-92.60405,7,44,72601,710451862,4
8400500130,SCOTT COUNTY HISTORICAL GENEALOGICAL SOCIETY,8127523388,PO BOX 1560,38.68191,-85.79167,4,NULL,72958,351859237,4
8400500245,SEARCY COUNTY HISTORICAL SOCIETY,NULL,PO BOX 133,35.91359,-92.61975,4,NULL,72650,710789198,4
8400500202,SEVIER COUNTY HISTORICAL SOCIETY,8706426642,717 WALTER J LEEPER DRIVE,34.03993,-94.33466,4,NULL,71832,710592295,3
8400500190,SILOAM SPRINGS MUSEUM SOCIETY,4795244011,PO BOX 1164,36.18564,-94.54003,5,NULL,72761,710559061,3
8400500217,SONNY BOY BLUES SOCIETY,8709956569,PO BOX 118,34.54006,-90.61527,4,NULL,35080,710673454,3
8400500294,SONS CHAPEL RURAL BUILDERS ASSOCIATION,NULL,2700 BROOKBURY CROSSING,36.10141,-94.11661,4,NULL,72703,770590293,1
8409502492,SOUTH ARKANSAS ARBORETUM,8708628131,501 TIMBERLANE DR,33.21172,-92.66086,2,46,71730,710718948,4
8400500283,SOUTH ARKANSAS ARTS CENTER,8625474,110 E 5TH ST,33.22186,-92.6623,7,NULL,71730,716053580,3
8400500099,SOUTH EAST PIKE COUNTY ALLIANCE,8706152195,PO BOX 133,35.71526,-92.27439,4,NULL,71940,272489176,4
8400500077,SOUTH SEBASTIAN COUNTY HISTORICAL SOCIETY,4799960079,PO BOX 523,35.20554,-94.25344,4,NULL,72936,237085216,4
8400500183,SOUTHWEST ARK REGIONAL ARCHIVES,8709832633,PO BOX 134,33.79774,-93.63071,5,NULL,71862,710539426,4
8409504108,STEPHENS ART GALLERY,9312217011,415 N COLLEGE AVE,35.47474,-93.46687,7,47,72830,710236867,3
8409504113,STEVENS ART GALLERY,5012794000,915 EAST MARKET AVENUE,35.24044,-91.7143,7,48,72143,710236896,4
8400500201,STONE COUNTY HISTORICAL SOCIETY,NULL,PO BOX 210,35.86527,-92.11232,4,NULL,72560,710585941,4
8400500244,SUGAR CREEK MODEL RAILROAD & HISTORICAL SOCIETY,4798551113,PO BOX 5452,36.4647,-94.32169,4,NULL,72714,710789129,2
8400500306,SULPHUR SPRINGS HISTORIC PRESERVATION ASSOCIATION,NULL,8 SOUTHERN PINES DR,34.18545,-92.02093,4,NULL,71601,900368548,1
8400500057,TEX-ARK ANTIQUE AUTO MUSEUM,8707722886,217 LAUREL ST,33.42404,-94.03769,5,NULL,71854,200985136,1
8400500093,THE BARN AT HOLIDAY ISLAND,7344274311,77 TABLE ROCK DRIVE,36.49276,-93.75592,4,NULL,72632,262342074,4
8400500226,TIRED IRON OF THE OZARKS,NULL,PO BOX 57,36.23642,-94.51751,1,NULL,72734,710724502,4
8400500113,TRAIL OF TEARS ASSOCIATION,5016669032,623 SPRING CREEK STREET,36.24583,-94.1715,4,NULL,72207,431662964,4
8400500091,TRAILS TO TUCKERMAN HISTORICAL SOCIETY,8703492644,PO BOX 976,35.71505,-91.21164,4,NULL,72473,261411078,4
8400500105,U.S. MARSHALS MUSEUM,NULL,14 N 3RD ST STE D,35.38913,-94.42784,4,NULL,72903,331173248,1
8400500258,UNION COUNTY GENEALOGICAL SOCIETY,NULL,PO BOX 967,33.22188,-92.66284,4,NULL,71730,710815209,3
8400500117,UNION COUNTY SPORTS HALL OF FAME,NULL,209 CHULA VISTA,33.24553,-92.67113,5,NULL,71730,452063407,3
8409501856,UNIVERSITY MUSEUM AND CULTURAL CENTER,8705758000,1200 NORTH UNIVERSITY,34.24231,-92.02409,5,49,71601,716010030,4
8409502566,UNIVERSITY OF ARKANSAS - FORT SMITH ARBORETUM,4797887000,5210 GRAND AVENUE,35.38525,-94.37425,2,50,72903,710394794,4
8409501026,UNIVERSITY OF ARKANSAS AT LITTLE ROCK PLANETARIUM,5015693259,2801 S UNIVERSITY AVE,34.7269,-92.3418,3,37,72202,710236904,1
8409501027,UNIVERSITY OF CENTRAL ARKANSAS PLANETARIUM,5014505000,201 DONAGHEY AVE,35.07833,-92.45431,3,36,72035,716001828,1
8400500239,VAN BUREN COUNTY HISTORICAL MUSEUM,5017454066,PO BOX 1023,35.59093,-92.48076,1,NULL,72031,710770917,4
8400500132,VAN BUREN PLACE HISTORIC DISTRICT,NULL,PO BOX 245,35.43596,-94.35323,4,NULL,72957,581918353,2
8400500264,VILLAGE GENEALOGICAL SOCIETY,NULL,34 LA CANADA WAY,34.6707,-93.04992,4,NULL,71909,710825056,3
8400500263,WALNUT RIDGE ARMY FLYING SCHOOL MUSEUM,8708866748,70 BEACON RD,36.07466,-90.96432,5,NULL,72476,710823772,3
8400500068,WASHINGTON COUNTY ARKANSAS GENEALOGICAL SOCIETY,4798567000,PO BOX 41,36.06189,-94.16435,4,NULL,72703,203259008,1
8400500101,WASHINGTON COUNTY HISTORICAL SOCIETY,5212970,617 W LAFAYETTE ST,36.06839,-94.16691,4,NULL,72703,300212518,1
8400500155,WASHINGTON COUNTY HISTORICAL SOCIETY,5212970,118 E DICKSON ST,36.06625,-94.1575,4,NULL,72703,710400895,1
8400500278,WESTERN ARKANSAS NATURE CENTER PARTNERS,NULL,2204 HENDRICKS BLVD,35.36196,-94.39078,2,NULL,72903,710860185,1
8400500279,WHITE COUNTY HISTORICAL SOCIETY,5012785010,112 WEST RACE AVE,35.25265,-91.7429,4,NULL,72143,710861686,3
8400500084,WILDWOOD PARK FOR THE PERFORMING ARTS,5018217275,20919 COUNTY ROAD 40,34.78982,-92.47191,2,NULL,72202,237386026,1
8409504349,WILLIAM H. BIGHAM GALLERIES,NULL,1515 PIONEER DR,35.90746,-92.60405,7,44,72601,710451862,4
8400500073,WILSON HISTORY & RESEARCH CENTER,5018217612,27 RAHLING CIR STE D14,34.76866,-92.45648,5,NULL,72202,208069419,1
8409400761,WINSLOW MUSEUM,NULL,108 N WINSLOW BLVD,35.80039,-94.13513,5,NULL,72959,471100821,4
8400500195,YELL COUNTY HISTORICAL & GENEALOGICAL SOCIETY,NULL,PO BOX 622,35.21721,-93.15507,4,NULL,72834,710573620,3
8400500277,YERGER SCHOOL MUSEUM,8707773865,316 E 4TH ST,34.6617,-92.30542,5,NULL,99605,710856930,4
8400400262,AFRICAN AMERICAN MULTICULTURAL MUSEUM,4803144400,11259 E VIA LINDA SUITE 100-159,33.45481,-111.92598,1,NULL,85259,841637761,1
8400400381,AGUA CALIENTE,5207493718,PO BOX 32005,32.27952,-110.72825,4,NULL,85751,860747202,4
8400400219,AJO HISTORICAL SOCIETY,5203877105,PO BOX 778,32.36256,-112.8721,4,NULL,85321,510182918,4
8400400358,ALWUN HOUSE FOUNDATION,6022537887,1204 E ROOSEVELT ST,33.45894,-112.05542,7,NULL,85006,860691113,1
8400400214,AMERICAN AVIATION HISTORICAL SOCIETY PHOENIX WING,NULL,1858 W NAVARRO AVE,33.36615,-111.87388,4,NULL,85202,470871009,1
8400400152,AMERICAN HEROES MUSEUM AT DESERT LAWN CEMETERY,9287685959,9250 S RANCHERO LN,34.90291,-114.59345,5,NULL,86440,261813103,3
8409501313,AMERICAN MUSEUM OF NURSING,NULL,UNIVERSITY DRIVE AND MILL AVENUE,33.69121,-112.53852,5,51,85287,860196696,4
8400400423,AMERICAN MUSEUM OF NURSING,6028424631,7025 N 58TH AVE,33.53938,-112.18333,5,NULL,85301,860960699,1
8400400271,AMERIND FOUNDATION,5205863666,PO BOX 400,32.03406,-110.05678,5,NULL,85609,860122680,4
8400400110,ANZA SOCIETY,NULL,12112 N RANCHO VISTOSO BLVD SUITE,32.42622,-110.95903,4,NULL,85755,61723695,4
8400400369,ANZA TRAIL COALITION ARIZONA,5202818426,PO BOX 4711,31.61326,-111.04793,5,NULL,85646,860719784,4
8400400333,APACHE COUNTY HISTORICAL SOCIETY,9283374737,PO BOX 146,34.5065,-109.37764,4,NULL,85936,860591706,3
8409501938,ARBORETUM AT ARIZONA STATE UNIVERSITY,4809659011,1151 S FOREST AVE,33.69121,-112.53852,2,51,85287,860196696,4
8400400444,ARIZONA AEROSPACE FOUNDATION,5205740462,6000 E VALENCIA RD,32.14063,-110.85327,3,NULL,85751,866031135,4
8400400093,ARIZONA AFRICAN ART MUSEUM,6023070893,400 N 5TH ST,33.46724,-112.07461,7,NULL,85006,237169261,1
8400400148,ARIZONA ANTIQUE ENGINE & TRACTOR MUSEUM,NULL,1625 E TWIN ACRES DR,33.25753,-111.81298,5,NULL,85286,261562495,2
8400400446,ARIZONA ARCHAEOLOGICAL AND HISTORICAL SOCIETY,5206216438,ARIZONA STATE MUSEUM UNIV OF AZ,32.23796,-110.95667,4,NULL,85751,866050701,1
8400400207,ARIZONA COUNCIL FOR HISTORY EDUCATION,NULL,PO BOX 742,33.43681,-111.943,4,NULL,85287,454937961,1
8400400127,ARIZONA COWBOY HALL OF FAME AND MUSEUM,5203844583,PO BOX 2157,34.38606,-111.4547,5,NULL,85544,205121514,4
8400400194,ARIZONA COWBOY SYMPOSIUM ASSOCIATION,NULL,3505 N CAMINO DE VISTA,32.27082,-111.02985,4,NULL,85751,412226482,1
8400400116,ARIZONA DEPARTMENT OF MINES & MINERAL RESOURCES,6239352007,1502 W WASHINGTON ST,33.44847,-112.0916,3,NULL,85006,200464283,1
8400400413,ARIZONA DIAMONDBACKS FOUNDATION,6024623430,401 E JEFFERSON ST,33.44643,-112.06731,3,NULL,85006,860901615,1
8400400336,ARIZONA DOLL AND TOY MUSEUM,6022539337,602 E ADAMS ST,33.54212,-112.18544,5,NULL,85006,860611792,1
8400400088,ARIZONA FOLKLORE PRESERVE,5203786165,44 E RAMSEY CANYON RD,33.59475,-111.9792,6,NULL,85615,860670641,1
8400400366,ARIZONA GENEALOGICAL ADVISORY BOARD,NULL,PO BOX 5641,33.41803,-111.83136,4,NULL,85202,860707942,1
8400400084,ARIZONA HISTORICAL SOCIETY,9287746272,2340 N FT VALLEY ROAD,35.22355,-111.65579,4,NULL,86001,860190900,1
8400400408,ARIZONA HISTORICAL SOCIETY,NULL,949 E 2ND ST,32.23308,-110.95736,4,NULL,85751,860874360,1
8400400097,ARIZONA HISTORICAL SOCIETY RIO COLORADO DIVISION,9287821841,240 S MADISON,32.72335,-114.61968,4,NULL,85364,860216519,1
8400400095,ARIZONA HISTORICAL SOCIETY SOUTHERN DIVISION,4809290292,949 E 2ND STREET,32.23308,-110.95736,4,NULL,85751,860874360,1
8400400306,ARIZONA JEWISH HISTORICAL SOCIETY,6022417870,4710 N 16TH ST STE 201,33.46285,-112.07235,4,NULL,85006,860410245,1
8400400100,ARIZONA MILITARY HERITAGE CENTER,9287581088,2245 CLEARWATER DR,32.14063,-110.85327,3,NULL,86442,866031135,4
8400400372,ARIZONA MUSEUM OF NATURAL HISTORY,4806442230,53 N MACDONALD,33.41665,-111.83358,9,NULL,85202,860230869,1
8400400245,ARIZONA NATIONAL GUARD HISTORICAL SOCIETY,6022532378,9014 N WEALTH ROAD,32.96342,-112.14539,4,NULL,85139,742468937,4
8409400052,ARIZONA OPEN WHEEL RACING MUSEUM,NULL,3534 E BROADWAY RD,33.40766,-112.00493,5,NULL,85006,463377173,1
8400400142,ARIZONA QUILTERS HALL OF FAME,9288991931,PO BOX 26024,32.20523,-110.94673,5,NULL,85751,260497213,1
8400400314,ARIZONA RAILWAY MUSEUM,4808211108,PO BOX 842,33.30463,-111.83867,5,NULL,85286,860481826,2
8400400128,ARIZONA ROUGH RIDERS HISTORICAL ASSOCIATON,9288481181,PO BOX 11313,34.5485,-112.47815,1,NULL,71857,205134997,1
8400400304,ARIZONA SCIENCE CENTER,6027162010,600 E WASHINGTON ST,33.44833,-112.06619,3,NULL,85006,860390558,1
8400400441,ARIZONA SCOUTING MUSEUM,4804635920,PO BOX 72421,33.66475,-112.0242,5,NULL,85006,861046960,1
8400400269,ARIZONA SONORA DESERT MUSEUM,NULL,2021 N KINNEY RD,32.24472,-111.16237,9,NULL,85751,860111675,4
8400400102,ARIZONA STATE CAPITOL MUSEUM,6025424675,1700 W WASHINGTON ST,33.44998,-112.09509,5,NULL,85006,860554728,1
8409501322,ARIZONA STATE MUSEUM,5206216302,1013 EAST UNIVERSITY BOULEVARD,32.23796,-110.95667,5,52,85751,866004791,1
8400400186,ARIZONA STATE RAILROAD MUSEUM,NULL,204 W RAILROAD AVE,35.25162,-112.18642,5,NULL,86046,311601974,3
8409502709,ARIZONA STATE UNIVERSITY ART MUSEUM,4809652787,51 EAST 10TH STREET,33.42431,-111.92893,7,51,85287,860196696,4
8409500257,ARIZONA STATE UNIVERSITY PLANETARIUM,4809655081,781 SOUTH TERRACE ROAD,33.42431,-111.92893,3,51,85287,860196696,1
8400400277,ARIZONA ZOOLOGICAL SOCIETY,6022731341,455 N GALVIN PKWY,33.44922,-111.94794,6,NULL,85006,860174843,1
8409500012,ARIZONA-SONORA DESERT MUSEUM,5208831380,2021 N KINNEY ROAD,32.24639,-111.18003,6,NULL,85751,860111675,4
8400400231,ART CAR WORLD,4153857229,450 E 8TH ST,31.34242,-109.5553,5,NULL,99824,651281505,3
8409502786,ART MUSEUM AT NELSON FINE ARTS CENTER,NULL,51 E 10TH ST,33.69121,-112.53852,7,51,85287,860196696,4
8409502787,ART MUSEUM CERAMICS RESEARCH CENTER,4809652787,51 E 10TH ST,33.69121,-112.53852,7,51,85287,860196696,4
8400400282,ASU CENTER FOR METEORITE STUDIES,4809656511,SCHOOL OF EARTH & SPACE EXPLORATION,33.41828,-111.93118,5,NULL,85287,860196696,1
8409502813,AWC CAMPUS GALLERY,9283176000,2020 SOUTH AVENUE 8 EAST,32.66186,-114.47483,7,53,85364,860179321,4
8400400184,B-26 MARAUDER HISTORICAL SOCIETY,NULL,3900 E TIMROD ST,32.21547,-110.90675,4,NULL,85751,311253622,1
8400400242,BEAD MUSEUM,6239312737,5838 W OLIVE AVE C105-182,33.56793,-112.17932,5,NULL,85301,742418281,1
8409502831,BEASLEY GALLERY,9285239011,S SAN FRANCISCO ST,35.20618,-111.6611,7,54,86001,742579628,4
8400400136,BISBEE COUNCIL ON THE ARTS & HUMANITIES,5204327071,PO BOX 14,31.40365,-109.90657,1,NULL,85603,237042402,4
8400400082,BISBEE MINING & HISTORICAL MUSEUM,6024327071,PO BOX 14,31.40365,-109.90657,4,NULL,85603,237042402,4
8400400228,BLACK CANYON HISTORICAL SOCIETY,6233740332,PO BOX 502,34.07475,-112.1387,4,NULL,85324,651248367,4
8400400370,BORDER AIR MUSEUM,NULL,7373 E SAN JACINTO DR,33.56375,-111.92232,5,NULL,85259,860719964,1
8400400211,BOUSE GENEALOGICAL SOCIETY,NULL,PO BOX 16,33.93334,-114.0046,4,NULL,85325,461289175,4
8409501998,BOYCE THOMPSON SOUTHWESTERN ARBORETUM,5206892723,37615 U S 60,33.28859,-111.10269,2,52,85273,866004791,3
8400400098,BUCKEYE MUSEUM,6233496315,116 E US HIGHWAY 85,33.39445,-112.55101,1,NULL,85326,860721420,4
8400400222,BUFFALO SOLDIERS OF THE ARIZONA TERRITORY,4804155439,PO BOX 20883,33.45864,-111.72085,4,NULL,85202,510662449,1
8400400436,BULLION PLAZA CULTURAL CENTER & MUSEUM,9284733700,PO BOX 786,33.39646,-110.87103,1,NULL,85539,861028253,3
8400400238,CABEZA PRIETA NATIONAL WILD LIFE REFUGE,5203876483,PO BOX 234,32.39747,-112.87213,6,NULL,85321,731687944,3
8400400279,CAMP VERDE HISTORICAL SOCIETY,9285679560,PO BOX 1184,34.56227,-111.85311,4,NULL,86322,860186836,3
8400400331,CARTWRIGHT HERITAGE HOUSE MUSEUM,NULL,10936 TROPICANA CIRCLE,33.61362,-112.29433,4,NULL,85351,860585853,2
8400400171,CASA GRANDE RUINS,NULL,32068 GRAND VALLEY DRIVE,32.50189,-111.22852,4,NULL,85658,272285931,4
8400400138,CASA GRANDE VALLEY HISTORICAL SOCIETY,5208362223,110 W FLORENCE BLVD,32.87963,-111.75394,4,NULL,85122,237115801,2
8400400380,CASA MALPAIS ARCHAEOLOGICAL PARK & MUSEUM,9283335375,PO BOX 807,34.13276,-109.28224,5,NULL,85938,860746686,3
8400400388,CASTANEDA MUSEUM OF ETHNIC COSTUME,5202994129,3550 E THIMBLE PEAK PL,32.32956,-110.9168,7,NULL,85751,860790385,2
8400400416,CATTLE TRACK ARTS AND PRESERVATION,4806073658,6105 N CATTLE TRACK RD,33.52583,-111.91725,4,NULL,85259,860920589,1
8400400456,CAVE CREEK MUSEUM,4804882764,PO BOX 1,33.83384,-111.94336,1,NULL,85327,942404270,2
8409502936,CENTER FOR CREATIVE PHOTOGRAPHY,5206217968,1030 NORTH OLIVE ROAD,32.23592,-110.95503,7,52,85751,866004791,4
8400400340,CENTER FOR DESERT ARCHAEOLOGY,5208826946,300 N ASH ALLEY,32.226,-110.97215,4,NULL,85751,860640183,1
8409500313,CENTER FOR METEORITE STUDIES,4809656511,SOUTH MCALLISTER AVENUE,33.69121,-112.53852,3,51,85287,860196696,4
8409500037,CENTER FOR NATIVE AND URBAN WILDLIFE,4804236000,9000 EAST CHAPARRAL ROAD,33.50945,-111.8811,6,55,85259,860185552,4
8400400405,CHALLENGER LEARNING CENTER OF ARIZONA,6233222001,21170 N 83RD AVE,33.67655,-112.23791,5,NULL,85382,860851830,2
8400400240,CHAMPLIN FIGHTER MUSEUM,6028304540,4636 E FIGHTER ACES DR,33.45475,-111.73045,5,NULL,85202,742353316,1
8400400074,CHANDLER HISTORICAL MUSEUM,4807822717,178 E COMMONWEALTH AVE,33.30463,-111.83867,4,NULL,85286,860348075,2
8400400297,CHANDLER MUSEUM,NULL,PO BOX 926,33.30463,-111.83867,4,NULL,85286,860348075,2
8400400113,CHILDREN MUSEUM OF CHANDLER,4809630262,PO BOX 2906,33.30463,-111.83867,8,NULL,85286,200114105,2
8400400420,CHILDREN'S MUSEUM OF PHOENIX,6022530501,215 N 7TH ST,33.4504,-112.06503,8,NULL,85006,860934323,1
8409400113,CHILDREN'S MUSEUM OF YUMA COUNTY,NULL,14758 S BLANCO AVE,32.61413,-114.56219,5,NULL,85364,462286334,4
8400400400,CHINESE CULTURAL CENTER,5202926900,PO BOX 27025,32.20523,-110.94673,5,NULL,85751,860834441,1
8400400197,CHINO VALLEY HISTORICAL SOCIETY,9286361622,PO BOX 4154,34.76301,-112.48538,4,NULL,86323,432068623,3
8400400258,CHIRICAHUA PELONCILLO HISTORICAL SOCIETY,5205580369,PO BOX 16530,31.97948,-109.13267,4,NULL,85632,800418986,4
8400400114,CLARKDALE HISTORICAL SOCIETY AND MUSEUM,9286491198,POB 806,34.75492,-112.05514,4,NULL,86324,200374999,3
8400400076,COCHISE COUNTY HISTORICAL SOCIETY,5203645226,1001 D AVE,31.35079,-109.55036,4,NULL,99824,237120669,3
8409502979,COLLEGE OF LAW ART COLLECTIONS,NULL,51 E 10TH ST,33.69121,-112.53852,7,51,85287,860196696,4
8400400313,COLORADO RIVER HISTORICAL SOCIETY,9287543399,PO BOX 1599,35.15327,-114.56741,4,NULL,86442,860473992,3
8400400078,COLOSSAL CAVE MOUNTAIN PARK,5206477275,16721 E OLD SPANISH TRL,31.94611,-110.78583,2,NULL,85641,742388747,3
8400400154,COMMEMORATIVE AIR FORCE,4809241940,2017 N GREENFIELD RD,33.45303,-111.73592,5,NULL,85202,263043675,1
8400400343,COOLIDGE HISTORICAL SOCIETY,5207237186,PO BOX 1186,32.97444,-111.51671,4,NULL,85128,860654230,3
8400400259,CORNVILLE HISTORICAL SOCIETY,9286491916,PO BOX 1200,34.72331,-111.9241,4,NULL,86325,800598087,4
8400400392,CORONADO NATIONAL FOREST HERITAGE SOCIETY,NULL,4259 E PASEO GRANDE,32.20911,-110.90206,4,NULL,85751,860802156,1
8409503009,CREDIT UNION ART CONNECTION,NULL,51 E 10TH ST,33.69121,-112.53852,7,51,85287,860196696,4
8400400283,CROSS-CULTURAL DANCE RESOURCE COLLECTION,4809654764,ARIZONA STATE UNIVERSITY,33.41828,-111.93118,5,NULL,85287,860196696,1
8400400193,CROWN KING HISTORICAL SOCIETY,NULL,PO BOX 254,34.21902,-112.30557,4,NULL,86343,412177598,4
8409503052,DEER VALLEY ROCK ART CENTER,6235828007,3711 WEST DEER VALLEY ROAD,33.68368,-112.14055,7,51,85301,860196696,1
8400400263,DEGRAZIA,NULL,7204 N 16TH STREET 110,33.54206,-112.04797,5,NULL,85006,841669030,1
8400400273,DESERT BOTANICAL GARDEN,4809411225,1201 N GALVIN PKWY,33.46385,-111.94167,2,NULL,85006,860136925,1
8400400077,DESERT CABALLEROS WESTERN MUSEUM,6026842272,21 NORTH FRONTIER STREET,33.96856,-112.73092,5,NULL,85390,860204201,3
8400400204,DWARF CAR MUSEUM,5204243158,52954 W HALFMOON RD,32.89496,-112.13654,5,NULL,85139,453761173,4
8400400201,EARTH SCIENCE MUSEUM,6029734291,3215 W BETHANY HOME RD,33.52363,-112.12906,3,NULL,85006,452661343,1
8400400299,EASTERN ARIZONA MUSEUM & HISTORICAL SOCIETY,9284859400,PO BOX 274,32.89468,-109.84893,4,NULL,85543,860366710,4
8400400308,EIGHT AIR FORCE HISTORICAL SOCIETY ARIZONA,NULL,10740 W CANTERBURY DR,33.59087,-112.29112,4,NULL,85351,860450112,2
8409503131,ERIC FISCHL GALLERY,6022234000,640 N 1ST AVE,33.45566,-112.07602,7,56,85006,860185552,1
8400400417,FLAGSTAFF CHILDREN'S MUSEUM,NULL,1817 N MEADOW LARK DR,35.2153,-111.64114,8,NULL,86001,860920838,1
8409500448,FLANDRAU SCIENCE CENTER AND PLANETARIUM,NULL,1601 E UNIVERSITY BLVD,32.24969,-110.95083,3,52,85751,866004791,1
8400400338,FLEISCHER MUSEUM,4805852209,17207 N PERIMETER DR,33.64188,-111.89596,5,NULL,85259,860637929,1
8400400055,FORT HUACHUCA MUSEUM,5205335736,BOYD ST,31.55259,-110.35049,5,NULL,85613,742477077,1
8400400426,FORT TUTHILL MILITARY MUSEUM,9282260965,8236 N 15TH DRIVE,33.55917,-112.09537,5,NULL,85006,860965588,1
8400400132,FOUR RIVERS HERITAGE CENTER AVONDALE ARIZONA,NULL,289 N LITCHFIELD RD,33.44911,-112.35675,1,NULL,85338,208711444,2
8400400284,FRANK LLOYD WRIGHT FOUNDATION,4806275372,12621 N FRANK LLOYD WRIGHT BLVD,33.55318,-111.89292,4,NULL,85259,860197576,1
8409500460,FRED LAWRENCE WHIPPLE OBSERVATORY,NULL,670 MT HOPKINS RD,42.36977,-71.11216,3,57,2138,42103580,1
8400400355,GADSDEN-PACIFIC DIVISION TOY TRAIN MUSEUM,5208882222,3975 N MILLER AVE,32.27958,-111.01059,5,NULL,85751,860682722,1
8409503248,GALLERY,6023317500,2233 W DUNLAP AVE,33.56746,-112.10653,7,58,85006,251360283,4
8409503255,GALLERY 100,4809658521,411 N CENTRAL AVENUE - STE 520,33.45251,-112.07371,7,59,85006,860196696,1
8409503254,GALLERY 100,NULL,51 E 10TH ST,33.69121,-112.53852,7,51,85287,860196696,4
8409503291,GALLERY OF DESIGN,NULL,DESIGN NORTH 810 S FOREST MALL,33.42431,-111.92893,7,51,85281,860196696,1
8400400316,GENEALOGICAL SOCIETY OF YUMA ARIZONA,NULL,PO BOX 2905,32.68676,-114.626,4,NULL,85364,860488746,1
8400400399,GERONIMO MONUMENT,5203644132,9010 E SHANNON BLVD,31.80007,-109.06181,4,NULL,85632,860823281,4
8400400465,GILA COUNTY HISTORICAL SOCIETY,9284257385,PO BOX 2891,33.40766,-110.79332,4,NULL,85502,953313718,3
8400400053,GILBERT HISTORICAL MUSEUM,4809261577,10 S GILBERT RD,33.34933,-111.78654,4,NULL,85296,860372907,2
8400400301,GILBERT HISTORICAL SOCIETY,4809261577,PO BOX 1484,33.34945,-111.78966,4,NULL,85296,860372907,2
8400400462,GLENDALE ARIZONA HISTORICAL SOCIETY,7179355574,PO BOX 5606,33.57645,-112.19062,4,NULL,85301,942894991,1
8400400150,GLENDALE POLICE MUSEUM,6239378088,6835 N 57 DR,33.53677,-112.18238,5,NULL,85301,261661619,1
8409503323,GRADUATE GALLERY,5206264215,1031 N OLIVE ROAD,32.23592,-110.95503,7,52,85751,866004791,1
8400400428,GRAHAM COUNTY HISTORICAL SOCIETY,9283480470,PO BOX 290,32.8492,-109.75713,4,NULL,85552,860980570,3
8400400337,GRAND CANYON HISTORICAL SOCIETY,NULL,PO BOX 31405,35.20847,-111.61224,4,NULL,86001,860621038,1
8400400479,GRAND CANYON NATIONAL PARK,9286387769,PO BOX 129,36.05442,-112.13862,2,NULL,86023,860179548,4
8400400321,GRAND CANYON TRUST,9287747488,2601 N FORT VALLEY RD,35.22528,-111.65781,2,NULL,86001,860512633,4
8400400365,GREEN VALLEY GENEALOGICAL SOCIETY,NULL,PO BOX 961,31.93593,-110.99003,4,NULL,85622,860706423,3
8400400291,GREENLEE COUNTY HISTORICAL SOCIETY,9288653115,POB 787,33.0113,-109.24553,4,NULL,85533,860311425,4
8400400054,GREENLEE COUNTY HISTORICAL SOCIETY,9288653115,299 CHASE CREEK ST,33.0113,-109.24553,4,NULL,85533,860311425,4
8409503372,HARRY WOOD ART GALLERY,NULL,PO BOX 871505,33.41828,-111.93118,7,51,85287,860196696,1
8409503373,HARRY WOOD GALLERY,4809658521,411 N CENTRAL AVENUE - STE 520,33.45251,-112.07371,7,59,85006,860196696,1
8400400407,HEALTH WORLD EDUCATION,8778056580,8601 E VIA DEL SOL DR,33.68534,-111.89545,8,NULL,85259,860870332,1
